paper_type,revenue,returned_at,review,shipping_address,shipping_latitude,shipping_longitude,shipping_mode,order_id,purchased_at,status,cancelled_at,product_id,product_name,price,discount,shipping_cost,quantity,business_size,payment_cycle,account_id,account_name,order_contact_name,order_contact_email,account_manager,days_to_close,shipping_city,shipping_state,shipping_zip,shipping_region,days_to_ship,reviewed_at,rating,index,Sentimental Analysis
Kraft Roll,7198.8,,5 stars!!!,7 Welch Road,36.649344,-97.35032,EXPRESS,054e942f-a659-42b6-9921-147e5f57f3aa,26-06-2021 12:47,COMPLETED,,310-36-40,"Delta Paper Butcher Paper Roll, White, 40 lbs., 36"" x 1000', 1 Roll",59.99,2.4,100,120,920,WEEK,60906229fc13ae0a6b0000aa,Green and Sons,Fuchsia Deer,fuchsia@green.com,Kelly Kapoor,16,New Jovanimouth,PA,74682,Northeast,1,24-07-2021 11:06,5,15,Positive
Kraft Roll,1068,,5 stars!!!,6726 Arapahoe Lane,37.12149,-107.885499,EXPRESS,10469bba-6b0a-46f6-9fc1-a8c4f8f56b04,02-11-2021 14:26,COMPLETED,,C2130240ST,"Delta Paper Kraft Paper Roll, Brown, 30 lbs., 24"" x 1200', 1 Roll",35.6,6.76,100,30,408,ANNUAL,60906229fc13ae0a6b0000ca,Tillman-Gerlach,Jambette Frog,jambette@tillman-gerlach.com,Kelly Kapoor,50,South Codymouth,CT,81310,Northeast,0,14-11-2021 06:17,5,5,Positive
Printer,1450.9,,5 stars!!!,80924 Crownhardt Alley,38.954149,-86.385977,EXPRESS,6aa5a3e8-bdaf-4450-a96d-0882d1068583,01-09-2021 05:50,COMPLETED,,20270,"Astrobrights Color Paper, 24 lb./89 gsm, Neon 5-Color Assortment, 500 Sheets/Pack",13.19,,100,110,438,BIWEEK,60906229fc13ae0a6b00023f,"Fadel, Emard and Huels",Hamphrey Hamster,hamphrey@fadel.com,Ryan Howard,31,Huelhaven,WY,47436,West,7,18-09-2021 21:40,5,3,Positive
Copy,172680,,5 stars!!!,9848 Killdeer Trail,29.650534,-98.338421,EXPRESS,74f7f2d0-efee-416e-a7c5-d33ed0f2b1b2,18-09-2021 17:05,COMPLETED,,324791-LQO,"Copy Paper, 20 lbs., 92 Brightness, 500 Sheets/Ream, 40 Cases/Pallet",1439,,100,120,482,BIWEEK,60906229fc13ae0a6b00038b,Hahn PLC,Benjamin Dog,benjamin@hahn.com,Erin Hannon,137,Balistreriview,MT,78293,West,7,05-10-2021 09:25,5,5,Positive
Multipurpose,324540,,5 stars!!!,9 Darwin Point,38.194886,-103.861345,EXPRESS,77576e37-03bf-4123-9be7-80d1e54b20f9,19-05-2021 04:10,COMPLETED,,TR56962-LQO,"TRU RED,¢ Multipurpose Paper, 20 lbs., 96 Bright, 500 /Ream, 10 Reams/Carton, 40 Cartons/Pallet",1803,,100,180,70,MONTH,60906229fc13ae0a6b000329,Bode and Sons,Robin Bird,robin@bode.com,Phyllis Vance,109,Lednerberg,ME,81033,Northeast,1,04-06-2021 15:41,5,4,Positive
Printer,2259.3,,5 stars!!!,40 Lindbergh Park,39.395154,-101.061478,EXPRESS,7c8c8e9e-9f01-4093-a582-60d6bd300120,26-09-2021 19:15,COMPLETED,,191259,"JAM Paper Strathmore 24lb Paper, 8.5 x 11, Ivory Wove, 100 Sheets/Pack",13.29,,100,170,837,BIWEEK,60906229fc13ae0a6b000238,Bergnaum Ltd,Nan Goat,nan@bergnaum.com,Phyllis Vance,105,South Emmanuelle,WV,67726,South,3,12-10-2021 19:00,5,15,Positive
Cardstock,369,,5 stars!!!,3905 Namekagon Pass,40.500795,-74.427911,REGULAR,7f41161c-ded7-43f1-8e04-810e1fbf75ff,25-10-2021 16:13,COMPLETED,,91335,"Neenah Paper Creative Collection Basic 8.5"" x 11"" Cardstock Paper, 65 lbs., 50 Sheets/Pack",3.69,,,100,235,BIWEEK,60906229fc13ae0a6b0001bc,Sanford-Douglas,Francine Rabbit,francine@sanford-douglas.com,Ryan Howard,36,North Savionfurt,CA,9516,West,9,06-11-2021 20:18,5,5,Positive
Printer,527.6,,5 stars!!!,3 Donald Court,35.676177,-108.758564,EXPRESS,babfd527-f5e2-40f5-9c91-794705a9b557,26-08-2021 01:51,COMPLETED,,20270,"Astrobrights Color Paper, 24 lb./89 gsm, Neon 5-Color Assortment, 500 Sheets/Pack",13.19,,100,40,418,ANNUAL,60906229fc13ae0a6b000006,Kling-Keeling,Shep Dog,shep@kling-keeling.com,Michael Scott,44,South Raleighbury,TN,87399,South,3,19-09-2021 18:25,5,1,Positive
Multipurpose,460018,,5 stars!!!,9 Vermont Terrace,48.595028,-103.732864,REGULAR,d9b22f7d-4389-4f93-8d85-820163e5d603,31-10-2021 11:44,COMPLETED,,2700-LQO,"EarthChoice Multipurpose Paper, 20 lbs., 92 Brightness, 40 Cases/Pallet",2300.09,,,200,1850,WEEK,60906229fc13ae0a6b000364,"Metz, Doyle and Greenholt",Sly Alligator,sly@metz.com,Phyllis Vance,3,VonRuedenhaven,AL,58957,South,6,26-11-2021 08:08,5,11,Positive
Multipurpose,7819,,5 stars!!!,67 Brickson Park Park,37.695426,-78.637777,REGULAR,dd2d5734-e8b0-4961-9e7e-eb82dc552bcc,14-04-2021 16:09,COMPLETED,,OX9001,"Boise X-9 Multipurpose Paper, 20 lbs., 92 Brightness, 500 Sheets/Ream, 10 Reams/Carton",78.19,,,100,793,WEEK,60906229fc13ae0a6b00031b,"Homenick, Dietrich and Kuhn",Caroline Squirrel,caroline@homenick.com,Ryan Howard,112,Friesenstad,FL,24562,South,7,24-04-2021 23:50,5,11,Positive
Multipurpose,7819,,5 stars!!!,9359 Sauthoff Center,42.141638,-106.630301,REGULAR,ee0c1f1e-7da7-4452-80ef-6fa770bce807,14-10-2021 20:49,COMPLETED,,OX9001,"Boise X-9 Multipurpose Paper, 20 lbs., 92 Brightness, 500 Sheets/Ream, 10 Reams/Carton",78.19,,,100,594,WEEK,60906229fc13ae0a6b00001f,"Conroy, Williamson and Jast",Melba Koala,melba@conroy.com,Stanley Hudson,98,New Desmond,TN,82328,South,5,04-11-2021 18:54,5,9,Positive
Printer,1860.6,,5 stars!!!,4 Hansons Parkway,41.102896,-80.761275,EXPRESS,f8c320aa-dcd6-4eb9-9811-91577f6d8e66,23-01-2021 20:10,COMPLETED,,191259,"JAM Paper Strathmore 24lb Paper, 8.5 x 11, Ivory Wove, 100 Sheets/Pack",13.29,,100,140,91,MONTH,60906229fc13ae0a6b00037f,"Kautzer, Ullrich and Boyle",Timbra Sheep,timbra@kautzer.com,Kevin Malone,96,Conroytown,FL,44546,South,4,13-02-2021 12:44,5,6,Positive
Multipurpose,10946.6,,5 stars!!!,11 Hollow Ridge Road,36.187509,-79.817677,EXPRESS,fe94a583-dae6-4f2e-a9ee-5ea7b039f7fa,04-12-2021 05:50,COMPLETED,,OX9001,"Boise X-9 Multipurpose Paper, 20 lbs., 92 Brightness, 500 Sheets/Ream, 10 Reams/Carton",78.19,,100,140,834,WEEK,60906229fc13ae0a6b000352,Hettinger-Kuvalis,Broffina Chicken,broffina@hettinger-kuvalis.com,Angela Martin,60,Feilchester,WV,27489,South,3,01-01-2022 03:40,5,8,Positive
Kraft Roll,4199.3,,Account manager was not responsive,2037 Fairfield Terrace,52.213091,-174.215643,REGULAR,02744930-0038-4bdb-b984-0af353851049,20-11-2021 08:28,COMPLETED,,310-36-40,"Delta Paper Butcher Paper Roll, White, 40 lbs., 36"" x 1000', 1 Roll",59.99,12,,70,127,MONTH,60906229fc13ae0a6b000069,Oberbrunner-Prohaska,Nate Bear,nate@oberbrunner-prohaska.com,Pam Beesly,45,Port Camyllefort,NY,99547,Northeast,3,07-12-2021 09:40,3,9,Negative
Multipurpose,9898.5,,Account manager was not responsive,53766 Waubesa Drive,34.301882,-94.318986,REGULAR,15da56d8-1627-4f38-b475-0d6d796172b0,19-04-2021 07:49,COMPLETED,,3R02047,"Xerox Vitality Multipurpose Paper, 8.5"" x 11"", 20 lbs., White, 500 Sheets/Ream, 10 Reams/Carton",65.99,1.32,,150,942,WEEK,60906229fc13ae0a6b0001ea,"Yundt, Wuckert and Corkery",Tex Penguin,tex@yundt.com,Andy Bernard,0,West Julietmouth,NJ,71990,Northeast,2,03-05-2021 04:42,3,2,Negative
Copy,14390,,Account manager was not responsive,23 Charing Cross Crossing,35.701353,-96.884595,EXPRESS,240cd572-f444-43de-b3cd-87a8434e44ab,13-07-2021 20:54,COMPLETED,,324791-LQO,"Copy Paper, 20 lbs., 92 Brightness, 500 Sheets/Ream, 40 Cases/Pallet",1439,,100,10,812,ANNUAL,60906229fc13ae0a6b0002b9,Fritsch Group,Piper Bird,piper@fritsch.com,Dwight Schrute,6,Lake Eldon,UT,74834,West,7,29-07-2021 09:22,3,8,Negative
Cardstock,10313.4,,Account manager was not responsive,349 Springs Terrace,34.851278,-106.011454,REGULAR,40a902a5-45b2-425b-b231-d598370c9f0d,25-08-2021 01:22,COMPLETED,,3R11458,"Xerox Bold 8.5"" x 11"" Cardstock Paper, 80 lbs, 94 Brightness, 250/Ream, 8 Reams/Carton",171.89,27.5,,60,1710,ANNUAL,60906229fc13ae0a6b0002aa,Corkery Ltd,Frank Eagle,frank@corkery.com,Michael Scott,113,North Aubreyview,ME,87033,Northeast,1,22-09-2021 21:02,3,9,Negative
Multipurpose,198330,,Account manager was not responsive,9832 Aberg Park,41.005338,-79.714928,REGULAR,682a2b22-6be8-4c9e-9263-af39ecc67b1b,07-08-2021 23:05,COMPLETED,,TR56962-LQO,"TRU RED,¢ Multipurpose Paper, 20 lbs., 96 Bright, 500 /Ream, 10 Reams/Carton, 40 Cartons/Pallet",1803,,,110,728,WEEK,60906229fc13ae0a6b000180,Metz-Fay,Sylvana Squirrel,sylvana@metz-fay.com,Meredith Palmer,137,West Meggie,TX,16042,South,6,22-08-2021 18:46,3,15,Negative
Copy,57560,,Account manager was not responsive,5 Ohio Avenue,35.89504,-78.923747,REGULAR,79b0eed2-3ef1-42a2-8c2b-5760dda13b1a,12-03-2021 01:17,COMPLETED,,324791-LQO,"Copy Paper, 20 lbs., 92 Brightness, 500 Sheets/Ream, 40 Cases/Pallet",1439,,,40,73,MONTH,60906229fc13ae0a6b000133,Osinski-Swaniawski,Drago Alligator,drago@osinski-swaniawski.com,Meredith Palmer,104,Trevaberg,MT,27767,West,9,11-04-2021 09:56,3,2,Negative
Copy,158290,,Account manager was not responsive,24 Village Place,55.818431,-132.0658,EXPRESS,7ddaad7a-efa4-4524-acf3-06511bf04101,04-01-2021 23:31,COMPLETED,,324791-LQO,"Copy Paper, 20 lbs., 92 Brightness, 500 Sheets/Ream, 40 Cases/Pallet",1439,,100,110,697,WEEK,60906229fc13ae0a6b000381,Hegmann-McCullough,Boone Gorilla,boone@hegmann-mccullough.com,Michael Scott,21,Clementinahaven,NY,99908,Northeast,0,16-01-2021 16:05,3,4,Negative
Printer,2790.9,,Account manager was not responsive,2491 Lawn Alley,36.956532,-82.454034,EXPRESS,9af187af-f363-4733-905d-7da5787e8114,30-12-2021 11:49,COMPLETED,,191259,"JAM Paper Strathmore 24lb Paper, 8.5 x 11, Ivory Wove, 100 Sheets/Pack",13.29,,100,210,695,BIWEEK,60906229fc13ae0a6b000388,"Bode, Halvorson and Keebler",Becky Chicken,becky@bode.com,Phyllis Vance,45,Pouroshaven,LA,24232,South,4,11-01-2022 21:39,3,14,Negative
Kraft Roll,1424,,Account manager was not responsive,101 Mosinee Center,41.586364,-93.487814,EXPRESS,a34c3c03-7f56-4141-94d4-6075dc2891f4,24-02-2021 20:16,COMPLETED,,C2130240ST,"Delta Paper Kraft Paper Roll, Brown, 30 lbs., 24"" x 1200', 1 Roll",35.6,6.76,100,40,352,WEEK,60906229fc13ae0a6b0002f1,Bayer-Wintheiser,Goose Chicken,goose@bayer-wintheiser.com,Dwight Schrute,20,West Edwardfurt,KS,50376,Midwest,1,24-03-2021 02:16,3,13,Negative
Multipurpose,2639.6,,Account manager was not responsive,8012 Bunting Court,44.123302,-88.749906,REGULAR,a3648d8d-8ddb-47d1-997b-83066d73b9d6,23-02-2021 15:04,COMPLETED,,3R02047,"Xerox Vitality Multipurpose Paper, 8.5"" x 11"", 20 lbs., White, 500 Sheets/Ream, 10 Reams/Carton",65.99,4.62,,40,197,BIWEEK,60906229fc13ae0a6b00013e,Lakin-Walter,Baabara Sheep,baabara@lakin-walter.com,Dwight Schrute,7,Colebury,WA,54987,West,7,07-03-2021 10:16,3,3,Negative
Kraft Roll,6408,,Account manager was not responsive,281 School Place,33.376467,-117.066121,EXPRESS,af9a7ec3-5923-49cb-be5d-eda76d800339,15-07-2021 05:06,COMPLETED,,C2130240ST,"Delta Paper Kraft Paper Roll, Brown, 30 lbs., 24"" x 1200', 1 Roll",35.6,6.41,100,180,590,BIWEEK,60906229fc13ae0a6b0000d8,Wisoky and Sons,Astrid Kangaroo,astrid@wisoky.com,Dwight Schrute,117,South Breanneberg,HI,92059,West,7,07-08-2021 02:42,3,13,Negative
Copy,43170,,Account manager was not responsive,8677 Melby Trail,34.074736,-118.145959,EXPRESS,b392a7ce-fc68-4d74-99b9-a4b53b9216a2,09-08-2021 10:13,COMPLETED,,324791-LQO,"Copy Paper, 20 lbs., 92 Brightness, 500 Sheets/Ream, 40 Cases/Pallet",1439,,100,30,260,WEEK,60906229fc13ae0a6b00008c,Veum-Lesch,Egbert Chicken,egbert@veum-lesch.com,Phyllis Vance,101,Kuvalismouth,SC,91876,South,3,08-09-2021 09:44,3,7,Negative
Cardstock,184.5,,Account manager was not responsive,3345 Monterey Lane,42.270542,-123.56742,REGULAR,c54ff838-e373-4895-9121-8dd49b77c625,05-08-2021 03:25,COMPLETED,,91335,"Neenah Paper Creative Collection Basic 8.5"" x 11"" Cardstock Paper, 65 lbs., 50 Sheets/Pack",3.69,,,50,983,ANNUAL,60906229fc13ae0a6b00013a,"Jacobi, Kuhn and Rath",Cally Squirrel,cally@jacobi.com,Oscar Martinez,22,North Elnoraport,SD,97538,Midwest,3,24-08-2021 21:11,3,3,Negative
Kraft Roll,2999.5,,Account manager was not responsive,30 Cordelia Road,29.378839,-96.834601,REGULAR,cf0b2de4-8dd0-4273-b404-166a4a0779b1,30-06-2021 17:46,COMPLETED,,310-36-40,"Delta Paper Butcher Paper Roll, White, 40 lbs., 36"" x 1000', 1 Roll",59.99,0.6,,50,269,WEEK,60906229fc13ae0a6b00012d,Greenfelder-Armstrong,Curt Bear,curt@greenfelder-armstrong.com,Michael Scott,86,North Dejonport,MS,77964,South,5,11-07-2021 08:25,3,1,Negative
Multipurpose,90150,,Account manager was not responsive,11174 Grayhawk Lane,29.89894,-89.895262,EXPRESS,d1e7d106-fe43-4511-9764-a0f515454890,18-11-2021 02:39,COMPLETED,,TR56962-LQO,"TRU RED,¢ Multipurpose Paper, 20 lbs., 96 Bright, 500 /Ream, 10 Reams/Carton, 40 Cartons/Pallet",1803,,100,50,486,WEEK,60906229fc13ae0a6b0001a5,Morissette PLC,Spork Pig,spork@morissette.com,Phyllis Vance,98,West Annamarieport,FL,70093,South,3,29-11-2021 10:49,3,9,Negative
Cardstock,738,,Average. Prince Paper has better shipping options and more selections.,5 Prairie Rose Way,42.028057,-87.810967,EXPRESS,0da14751-bb79-4c55-8845-abffdf993bc8,22-11-2021 11:04,COMPLETED,,91335,"Neenah Paper Creative Collection Basic 8.5"" x 11"" Cardstock Paper, 65 lbs., 50 Sheets/Pack",3.69,,100,200,605,BIWEEK,60906229fc13ae0a6b00021a,Bailey-King,Chops Pig,chops@bailey-king.com,Kevin Malone,82,New Jesusland,WY,60744,West,7,04-12-2021 01:43,3,2,Neutral
Multipurpose,1319.8,,Average. Prince Paper has better shipping options and more selections.,73 Elmside Center,41.307372,-80.603473,REGULAR,24a4d4ca-d121-4beb-bbd0-af13ab522362,24-02-2021 11:07,COMPLETED,,3R02047,"Xerox Vitality Multipurpose Paper, 8.5"" x 11"", 20 lbs., White, 500 Sheets/Ream, 10 Reams/Carton",65.99,3.96,,20,583,ANNUAL,60906229fc13ae0a6b0003a4,Mertz-Lang,Cheri Cub,cheri@mertz-lang.com,Oscar Martinez,65,Kohlerborough,SD,44419,Midwest,5,27-03-2021 06:04,3,1,Neutral
Printer,2259.3,,Average. Prince Paper has better shipping options and more selections.,19 Morningstar Street,34.236302,-118.249185,REGULAR,28a6955e-d9a1-4f04-a687-7207bb3f5f2e,14-02-2021 05:24,COMPLETED,,191259,"JAM Paper Strathmore 24lb Paper, 8.5 x 11, Ivory Wove, 100 Sheets/Pack",13.29,,,170,794,BIWEEK,60906229fc13ae0a6b0000bd,Bosco-Bins,Boris Pig,boris@bosco-bins.com,Phyllis Vance,8,Sauertown,WV,91239,South,7,10-03-2021 16:26,3,9,Neutral
Multipurpose,345013.5,,Average. Prince Paper has better shipping options and more selections.,2474 West Junction,40.668934,-73.458448,EXPRESS,59da2200-7982-44c3-a728-a146262da029,27-07-2021 04:25,COMPLETED,,2700-LQO,"EarthChoice Multipurpose Paper, 20 lbs., 92 Brightness, 40 Cases/Pallet",2300.09,,100,150,4248,ANNUAL,60906229fc13ae0a6b0002f5,"Predovic, Will and Weimann",Timbra Sheep,timbra@predovic.com,Dwight Schrute,0,North Eudora,AZ,11759,West,6,08-08-2021 15:56,3,12,Neutral
Printer,2769.9,,Average. Prince Paper has better shipping options and more selections.,69 Grover Parkway,41.766607,-72.691149,REGULAR,5c8323d0-0fe5-48bf-9cec-d27950c31eb3,17-10-2021 21:28,COMPLETED,,20270,"Astrobrights Color Paper, 24 lb./89 gsm, Neon 5-Color Assortment, 500 Sheets/Pack",13.19,,,210,218,MONTH,60906229fc13ae0a6b000129,"Sauer, Schuster and Hammes",Cyd Elephant,cyd@sauer.com,Erin Hannon,16,South Teagan,CO,6200,West,9,10-11-2021 22:12,3,5,Neutral
Cardstock,20626.8,,Average. Prince Paper has better shipping options and more selections.,17310 Loomis Circle,31.511701,-81.443246,EXPRESS,6ebc92c4-4b6a-453b-a803-86d44baa349d,10-09-2021 14:35,COMPLETED,,3R11458,"Xerox Bold 8.5"" x 11"" Cardstock Paper, 80 lbs, 94 Brightness, 250/Ream, 8 Reams/Carton",171.89,29.22,100,120,1574,ANNUAL,60906229fc13ae0a6b0002f7,Feest-Nicolas,Tammy Cub,tammy@feest-nicolas.com,Meredith Palmer,72,New Hassiefurt,NJ,31332,Northeast,0,24-09-2021 00:26,3,1,Neutral
Cardstock,738,,Average. Prince Paper has better shipping options and more selections.,42747 Northfield Place,40.615333,-115.594252,EXPRESS,8d99fb95-e11d-4043-a141-45aca7190994,23-06-2021 19:26,COMPLETED,,91335,"Neenah Paper Creative Collection Basic 8.5"" x 11"" Cardstock Paper, 65 lbs., 50 Sheets/Pack",3.69,,100,200,256,MONTH,60906229fc13ae0a6b000370,Feil-Marvin,Tia Elephant,tia@feil-marvin.com,Creed Patton,8,Port Elnora,SD,89816,Midwest,2,17-07-2021 03:21,3,13,Neutral
Copy,28780,,Average. Prince Paper has better shipping options and more selections.,50814 Moulton Road,38.715463,-121.363422,EXPRESS,a7ef1a72-a8d4-4f0b-8fd9-1489111cec2e,05-08-2021 21:44,COMPLETED,,324791-LQO,"Copy Paper, 20 lbs., 92 Brightness, 500 Sheets/Ream, 40 Cases/Pallet",1439,,100,20,638,ANNUAL,60906229fc13ae0a6b00033a,Dietrich LLC,Bubbles Hippo,bubbles@dietrich.com,Erin Hannon,33,Kalebshire,WV,95860,South,3,16-08-2021 01:48,3,4,Neutral
Kraft Roll,356,,Average. Prince Paper has better shipping options and more selections.,15408 Briar Crest Point,39.327618,-94.226953,EXPRESS,a8c3b443-a7df-4104-ab2a-727776ff6303,15-04-2021 14:15,COMPLETED,,C2130240ST,"Delta Paper Kraft Paper Roll, Brown, 30 lbs., 24"" x 1200', 1 Roll",35.6,4.63,100,10,632,ANNUAL,60906229fc13ae0a6b00027e,Gottlieb Ltd,Sally Squirrel,sally@gottlieb.com,Kevin Malone,25,South Jordon,CA,64026,West,7,06-05-2021 17:08,3,5,Neutral
Multipurpose,5473.3,,Average. Prince Paper has better shipping options and more selections.,33337 Stone Corner Hill,43.044371,-78.777335,REGULAR,baa02810-6eee-4508-bf2b-3eaf327daf96,14-09-2021 20:10,COMPLETED,,OX9001,"Boise X-9 Multipurpose Paper, 20 lbs., 92 Brightness, 500 Sheets/Ream, 10 Reams/Carton",78.19,,,70,392,WEEK,60906229fc13ae0a6b000285,"Cruickshank, Hyatt and Paucek",Maelle Duck,maelle@cruickshank.com,Dwight Schrute,135,New Jolieborough,NY,14244,Northeast,1,02-10-2021 13:56,3,6,Neutral
Multipurpose,12510.4,,Average. Prince Paper has better shipping options and more selections.,4983 Southridge Lane,36.91499,-89.222879,EXPRESS,bed50ebe-0297-452d-9164-f780554461e1,16-11-2021 09:47,COMPLETED,,OX9001,"Boise X-9 Multipurpose Paper, 20 lbs., 92 Brightness, 500 Sheets/Ream, 10 Reams/Carton",78.19,,100,160,698,BIWEEK,60906229fc13ae0a6b000320,Lind-Schuster,Ribbot Frog,ribbot@lind-schuster.com,Meredith Palmer,67,West Velvafort,WV,63889,South,3,04-12-2021 14:35,3,12,Neutral
Copy,43170,,Average. Prince Paper has better shipping options and more selections.,4875 Towne Terrace,45.426416,-122.442992,EXPRESS,c6faa318-1574-420a-9495-d73a37d60980,11-09-2021 09:14,COMPLETED,,324791-LQO,"Copy Paper, 20 lbs., 92 Brightness, 500 Sheets/Ream, 40 Cases/Pallet",1439,,100,30,701,ANNUAL,60906229fc13ae0a6b0000a8,Wyman-Hammes,Sally Squirrel,sally@wyman-hammes.com,Ryan Howard,25,Lionelburgh,ME,97097,Northeast,0,24-09-2021 15:29,3,12,Neutral
Kraft Roll,1199.8,,Average. Prince Paper has better shipping options and more selections.,039 Westridge Court,42.970338,-83.65859,REGULAR,d78e651d-3e89-41b9-b124-812e529fa243,12-09-2021 00:51,COMPLETED,,310-36-40,"Delta Paper Butcher Paper Roll, White, 40 lbs., 36"" x 1000', 1 Roll",59.99,6.6,,20,594,ANNUAL,60906229fc13ae0a6b00014f,Lowe-Hermann,Dotty Rabbit,dotty@lowe-hermann.com,Meredith Palmer,14,Sanfordview,HI,48530,West,9,25-09-2021 21:58,3,7,Neutral
Copy,287800,,Average. Prince Paper has better shipping options and more selections.,5 Jackson Court,38.733371,-76.593148,EXPRESS,e350684d-9e17-4bff-85b4-0a75b68438e0,07-12-2021 01:51,COMPLETED,,324791-LQO,"Copy Paper, 20 lbs., 92 Brightness, 500 Sheets/Ream, 40 Cases/Pallet",1439,,100,200,190,MONTH,60906229fc13ae0a6b00020b,"Grant, Farrell and Macejkovic",Anchovy Bird,anchovy@grant.com,Angela Martin,125,West Nella,RI,20758,Northeast,0,03-01-2022 09:03,3,3,Neutral
Copy,287800,,Average. Prince Paper has better shipping options and more selections.,9030 Tomscot Park,39.791562,-75.22414,EXPRESS,f7688e0a-b6be-4990-95a2-5d342c1c892a,30-05-2021 18:54,COMPLETED,,324791-LQO,"Copy Paper, 20 lbs., 92 Brightness, 500 Sheets/Ream, 40 Cases/Pallet",1439,,100,200,141,MONTH,60906229fc13ae0a6b000395,"Howe, Gusikowski and Larson",Rhonda Rhino,rhonda@howe.com,Angela Martin,30,Whitetown,MS,8020,South,5,23-06-2021 16:30,3,11,Neutral
Multipurpose,252420,,AVOID THIS PLACE WITH YOUR LIFE,47 Declaration Circle,37.768106,-122.386927,EXPRESS,3f87a9b0-d883-4f16-a267-1751a7d231d5,08-04-2021 14:25,COMPLETED,,TR56962-LQO,"TRU RED,¢ Multipurpose Paper, 20 lbs., 96 Bright, 500 /Ream, 10 Reams/Carton, 40 Cartons/Pallet",1803,,100,140,102,MONTH,60906229fc13ae0a6b00035f,Lesch-Vandervort,Opal Elephant,opal@lesch-vandervort.com,Dwight Schrute,57,West Celestino,SD,94289,Midwest,1,22-04-2021 19:56,1,8,Negative
Cardstock,10313.4,,"Beware! Once they lock you into a contract, it's extremely difficult to change or get out of it",67990 Farmco Place,37.902226,-122.317378,REGULAR,3f87af65-9faf-4949-8c3a-a2d9ee01ac9c,08-12-2021 19:44,COMPLETED,,3R11458,"Xerox Bold 8.5"" x 11"" Cardstock Paper, 80 lbs, 94 Brightness, 250/Ream, 8 Reams/Carton",171.89,25.78,,60,4645,ANNUAL,60906229fc13ae0a6b000137,"Farrell, Cruickshank and Hettinger",Megan Bear,megan@farrell.com,Dwight Schrute,13,Laishaport,DE,94891,South,5,22-12-2021 13:30,2,3,Negative
Printer,1846.6,,"Beware! Once they lock you into a contract, it's extremely difficult to change or get out of it",2956 Melrose Circle,46.543655,-121.023317,REGULAR,5325cc75-fcbd-4b48-ad51-c25fdae95625,26-02-2021 17:37,COMPLETED,,20270,"Astrobrights Color Paper, 24 lb./89 gsm, Neon 5-Color Assortment, 500 Sheets/Pack",13.19,,,140,705,WEEK,60906229fc13ae0a6b0002ce,Rippin LLC,Queenie Ostrich,queenie@rippin.com,Dwight Schrute,122,East Simhaven,NY,98904,Northeast,3,14-03-2021 20:59,2,15,Negative
Multipurpose,11878.2,,"Beware! Once they lock you into a contract, it's extremely difficult to change or get out of it",4 Linden Way,30.022752,-81.406577,REGULAR,aa79e448-f6a8-483a-89f7-766da190d6aa,13-12-2021 08:43,COMPLETED,,3R02047,"Xerox Vitality Multipurpose Paper, 8.5"" x 11"", 20 lbs., White, 500 Sheets/Ream, 10 Reams/Carton",65.99,10.56,,180,998,WEEK,60906229fc13ae0a6b000173,Bednar-Kunze,Pango Anteater,pango@bednar-kunze.com,Dwight Schrute,77,Lake Felicityton,OH,32095,Midwest,3,02-01-2022 18:33,2,9,Negative
Multipurpose,162270,,"Beware! Once they lock you into a contract, it's extremely difficult to change or get out of it",7648 Monterey Circle,42.965044,-72.294803,EXPRESS,d3b940e5-c783-4b7b-b42a-8ff306a7bc4b,25-06-2021 20:27,COMPLETED,,TR56962-LQO,"TRU RED,¢ Multipurpose Paper, 20 lbs., 96 Bright, 500 /Ream, 10 Reams/Carton, 40 Cartons/Pallet",1803,,100,90,520,WEEK,60906229fc13ae0a6b00009b,"O'Hara, Smith and Luettgen",Filbert Squirrel,filbert@ohara.com,Dwight Schrute,143,East Sabrina,PA,3439,Northeast,0,23-07-2021 15:25,2,7,Negative
Cardstock,73.8,,"Beware! Once they lock you into a contract, it's extremely difficult to change or get out of it",73 Dunning Road,38.404576,-82.360178,REGULAR,f7e07611-c258-4ed8-8321-12ce7ac093ec,26-05-2021 17:08,COMPLETED,,91335,"Neenah Paper Creative Collection Basic 8.5"" x 11"" Cardstock Paper, 65 lbs., 50 Sheets/Pack",3.69,,,20,925,ANNUAL,60906229fc13ae0a6b0000cc,Kiehn-Krajcik,Gladys Ostrich,gladys@kiehn-krajcik.com,Dwight Schrute,47,Lake Dandre,AL,25728,South,5,13-06-2021 01:32,2,4,Negative
Printer,2110.4,,Decent company. Wish they expanded their product offering.,11 Bayside Park,36.724637,-110.612172,EXPRESS,06c62e43-342b-41d1-ac5b-bd2222e150d4,19-04-2021 00:00,COMPLETED,,20270,"Astrobrights Color Paper, 24 lb./89 gsm, Neon 5-Color Assortment, 500 Sheets/Pack",13.19,,100,160,190,MONTH,60906229fc13ae0a6b0002b4,"Anderson, Armstrong and Hane",Big Top Elephant,big top@anderson.com,Phyllis Vance,103,Tillmantown,ME,86124,Northeast,1,14-05-2021 14:10,3,12,Positive
Multipurpose,138005.4,,Decent company. Wish they expanded their product offering.,86687 Manufacturers Terrace,41.093003,-80.626397,REGULAR,0ec83668-83d8-40f1-876e-af2fc102336e,24-12-2021 14:27,COMPLETED,,2700-LQO,"EarthChoice Multipurpose Paper, 20 lbs., 92 Brightness, 40 Cases/Pallet",2300.09,,,60,1861,ANNUAL,60906229fc13ae0a6b000161,"Friesen, Torphy and Keebler",Sandy Ostrich,sandy@friesen.com,Ryan Howard,42,North Alice,IN,44506,Midwest,5,20-01-2022 19:01,3,9,Positive
Multipurpose,4619.3,,Decent company. Wish they expanded their product offering.,22692 Mendota Center,44.241936,-73.194663,REGULAR,256956b6-23b7-4e23-b470-8062b2b62e00,03-05-2021 01:16,COMPLETED,,3R02047,"Xerox Vitality Multipurpose Paper, 8.5"" x 11"", 20 lbs., White, 500 Sheets/Ream, 10 Reams/Carton",65.99,15.18,,70,479,WEEK,60906229fc13ae0a6b00009c,Mann PLC,Butch Dog,butch@mann.com,Dwight Schrute,148,Yasminemouth,AL,5473,South,7,20-05-2021 02:14,3,8,Positive
Multipurpose,92003.6,,Decent company. Wish they expanded their product offering.,3 Hanover Way,43.044371,-78.777335,REGULAR,368cf9f7-38a9-475e-9bb0-bb6269af8860,15-03-2021 03:38,COMPLETED,,2700-LQO,"EarthChoice Multipurpose Paper, 20 lbs., 92 Brightness, 40 Cases/Pallet",2300.09,,,40,4654,ANNUAL,60906229fc13ae0a6b0000bb,Johnson-Windler,Static Squirrel,static@johnson-windler.com,Michael Scott,143,Cruickshankmouth,HI,14252,West,8,09-04-2021 20:55,3,6,Positive
Cardstock,627.3,,Decent company. Wish they expanded their product offering.,6726 Golf Course Avenue,44.956026,-93.08268,EXPRESS,45e70e54-731b-44e0-a59a-6d83d1aa0372,13-12-2021 08:07,COMPLETED,,91335,"Neenah Paper Creative Collection Basic 8.5"" x 11"" Cardstock Paper, 65 lbs., 50 Sheets/Pack",3.69,,100,170,209,MONTH,60906229fc13ae0a6b0003e4,"Shanahan, Reinger and Ryan",Biff Hippo,biff@shanahan.com,Stanley Hudson,92,Port Zacherymouth,UT,55274,West,5,23-12-2021 22:17,3,4,Positive
Multipurpose,8719.2,,Decent company. Wish they expanded their product offering.,92 Thackeray Park,44.151687,-68.465212,REGULAR,476ecaf5-c9ea-4920-b0c6-a9c4a5212063,28-03-2021 04:44,COMPLETED,,NMP1124,"Navigator Premium Multipurpose Paper, 24 lbs., 99 Brightness, 500/Ream, 10 Reams/Carton",108.99,,,80,281,BIWEEK,60906229fc13ae0a6b0002c0,Hammes and Sons,Rod Mouse,rod@hammes.com,Kevin Malone,47,Barrowsfort,OH,4685,Midwest,3,13-04-2021 09:32,3,14,Positive
Multipurpose,391015.3,,Decent company. Wish they expanded their product offering.,72421 Myrtle Alley,37.11972,-93.309724,REGULAR,4ad7017a-2ebd-4387-8da1-9960cbe1b343,03-11-2021 23:01,COMPLETED,,2700-LQO,"EarthChoice Multipurpose Paper, 20 lbs., 92 Brightness, 40 Cases/Pallet",2300.09,,,170,1477,WEEK,60906229fc13ae0a6b000262,Gusikowski Inc,Bonbon Rabbit,bonbon@gusikowski.com,Meredith Palmer,42,Gardnerberg,TX,65817,South,5,15-11-2021 03:49,3,12,Positive
Kraft Roll,6408,,Decent company. Wish they expanded their product offering.,487 Pleasure Junction,36.137283,-103.123139,EXPRESS,4de157c8-bc65-4dd9-ab6e-5873e42ce5ef,05-01-2021 23:09,COMPLETED,,C2130240ST,"Delta Paper Kraft Paper Roll, Brown, 30 lbs., 24"" x 1200', 1 Roll",35.6,1.42,100,180,692,BIWEEK,60906229fc13ae0a6b000374,Hintz Ltd,Nibbles Squirrel,nibbles@hintz.com,Stanley Hudson,142,Port Kole,IN,88481,Midwest,3,05-02-2021 01:33,3,10,Positive
Multipurpose,288480,,Decent company. Wish they expanded their product offering.,179 Alpine Trail,37.716107,-77.201511,REGULAR,4f052a19-2c2d-4a13-92b4-6c6759ac20b6,22-10-2021 09:44,COMPLETED,,TR56962-LQO,"TRU RED,¢ Multipurpose Paper, 20 lbs., 96 Bright, 500 /Ream, 10 Reams/Carton, 40 Cartons/Pallet",1803,,,160,875,WEEK,60906229fc13ae0a6b0002a3,"Fay, Hirthe and Durgan",Chadder Mouse,chadder@fay.com,Dwight Schrute,11,Nicholausmouth,GA,23107,South,5,19-11-2021 14:32,3,11,Positive
Multipurpose,360600,,Decent company. Wish they expanded their product offering.,41 Waubesa Avenue,45.088669,-118.882506,EXPRESS,54bf759c-0f63-4be2-90dc-ea01faf2db9a,30-11-2021 06:41,COMPLETED,,TR56962-LQO,"TRU RED,¢ Multipurpose Paper, 20 lbs., 96 Bright, 500 /Ream, 10 Reams/Carton, 40 Cartons/Pallet",1803,,100,200,87,MONTH,60906229fc13ae0a6b000219,Romaguera Ltd,Gloria Duck,gloria@romaguera.com,Phyllis Vance,121,Gagemouth,FL,97881,South,4,18-12-2021 11:43,3,12,Positive
Copy,201460,,Decent company. Wish they expanded their product offering.,13206 Buena Vista Avenue,38.904902,-79.395514,EXPRESS,63935d46-74bd-454f-95f9-edd6e18d782d,23-02-2021 17:07,COMPLETED,,324791-LQO,"Copy Paper, 20 lbs., 92 Brightness, 500 Sheets/Ream, 40 Cases/Pallet",1439,,100,140,898,WEEK,60906229fc13ae0a6b0003ab,Jones Group,Phil Ostrich,phil@jones.com,Phyllis Vance,101,South Torranceburgh,LA,26936,South,3,19-03-2021 00:19,3,11,Positive
Multipurpose,2639.6,,Decent company. Wish they expanded their product offering.,568 Autumn Leaf Way,40.627601,-109.480061,REGULAR,668ac66d-4768-4e20-a514-67f0482ffe71,21-08-2021 23:45,COMPLETED,,3R02047,"Xerox Vitality Multipurpose Paper, 8.5"" x 11"", 20 lbs., White, 500 Sheets/Ream, 10 Reams/Carton",65.99,13.2,,40,346,WEEK,60906229fc13ae0a6b00018f,Bode LLC,Grizzly Bear,grizzly@bode.com,Dwight Schrute,136,Raynorview,ME,84078,Northeast,3,06-09-2021 04:47,3,9,Positive
Printer,659.5,,Decent company. Wish they expanded their product offering.,1 Iowa Junction,43.045865,-90.820473,REGULAR,be4f4dfc-b50f-44c6-a9d3-2f159dbeffd3,08-01-2021 17:51,COMPLETED,,20270,"Astrobrights Color Paper, 24 lb./89 gsm, Neon 5-Color Assortment, 500 Sheets/Pack",13.19,,,50,73,MONTH,60906229fc13ae0a6b0001fc,Greenholt-Hamill,Vic Bull,vic@greenholt-hamill.com,Erin Hannon,18,West Aaliyah,FL,53873,South,5,25-01-2021 12:05,3,12,Positive
Multipurpose,10946.6,,Decent company. Wish they expanded their product offering.,72546 Mitchell Circle,42.811821,-103.330405,REGULAR,c28048de-9f40-4d9e-945c-ceed40a6e13e,08-04-2021 15:26,COMPLETED,,OX9001,"Boise X-9 Multipurpose Paper, 20 lbs., 92 Brightness, 500 Sheets/Ream, 10 Reams/Carton",78.19,,,140,850,WEEK,60906229fc13ae0a6b0000a3,Rau LLC,Twiggy Bird,twiggy@rau.com,Ryan Howard,95,South Devantemouth,WA,69732,West,10,22-04-2021 07:45,3,10,Positive
Multipurpose,1979.7,,Decent company. Wish they expanded their product offering.,90571 Canary Drive,43.022478,-87.976072,REGULAR,c32d1238-7eb1-41de-9a33-18f5b12135e7,10-04-2021 06:43,COMPLETED,,3R02047,"Xerox Vitality Multipurpose Paper, 8.5"" x 11"", 20 lbs., White, 500 Sheets/Ream, 10 Reams/Carton",65.99,15.84,,30,209,WEEK,60906229fc13ae0a6b000111,Parker-Rosenbaum,Chow Bear,chow@parker-rosenbaum.com,Dwight Schrute,8,Francisland,PA,53361,Northeast,2,28-04-2021 10:19,3,9,Positive
Kraft Roll,712,,Decent company. Wish they expanded their product offering.,0421 Daystar Terrace,31.520809,-91.899171,EXPRESS,db967357-477d-4314-945e-8010a3bf8806,23-12-2021 11:59,COMPLETED,,C2130240ST,"Delta Paper Kraft Paper Roll, Brown, 30 lbs., 24"" x 1200', 1 Roll",35.6,3.92,100,20,488,ANNUAL,60906229fc13ae0a6b00039c,Hand-Lemke,Static Squirrel,static@hand-lemke.com,Kevin Malone,87,Huldaside,MI,71343,Midwest,3,08-01-2022 10:04,3,6,Positive
Kraft Roll,11998,,Decent company. Wish they expanded their product offering.,431 Maple Center,39.37566,-75.887993,EXPRESS,e79099e6-44a5-4ce7-bec9-aa5a3dfafa56,23-10-2021 21:01,COMPLETED,,310-36-40,"Delta Paper Butcher Paper Roll, White, 40 lbs., 36"" x 1000', 1 Roll",59.99,10.8,100,200,797,BIWEEK,60906229fc13ae0a6b00006a,"Gulgowski, Hammes and Wisozk",Tutu Bear,tutu@gulgowski.com,Ryan Howard,61,Westton,WA,21943,West,5,09-11-2021 23:53,3,11,Positive
Kraft Roll,9598.4,,Decent company. Wish they expanded their product offering.,41621 Linden Plaza,34.139526,-80.888209,REGULAR,fda0f644-dfb7-4287-bad8-5b4fed66dffd,13-05-2021 03:21,COMPLETED,,310-36-40,"Delta Paper Butcher Paper Roll, White, 40 lbs., 36"" x 1000', 1 Roll",59.99,4.8,,160,644,BIWEEK,60906229fc13ae0a6b000011,Senger-Bednar,Rhonda Rhino,rhonda@senger-bednar.com,Michael Scott,50,Jacobsmouth,TX,29251,South,7,07-06-2021 02:09,3,6,Positive
Copy,115120,,Didn't like the particular product we purchased. Will try another one!,3 Warner Avenue,40.697483,-74.169902,EXPRESS,680ff898-2786-4b54-a9aa-e45a0b6ccfd0,10-07-2021 15:02,COMPLETED,,324791-LQO,"Copy Paper, 20 lbs., 92 Brightness, 500 Sheets/Ream, 40 Cases/Pallet",1439,,100,80,187,BIWEEK,60906229fc13ae0a6b000171,Morar-Crooks,Big Top Elephant,big top@morar-crooks.com,Dwight Schrute,5,Mrazstad,CO,7123,West,7,24-07-2021 01:21,2,2,Neutral
Kraft Roll,1780,,Didn't like the particular product we purchased. Will try another one!,9265 Lien Pass,39.647433,-84.170598,REGULAR,897266a6-cc68-4ca9-b6f7-7520b676acfe,04-07-2021 03:18,COMPLETED,,C2130240ST,"Delta Paper Kraft Paper Roll, Brown, 30 lbs., 24"" x 1200', 1 Roll",35.6,6.76,,50,989,ANNUAL,60906229fc13ae0a6b0003b6,Kunde Ltd,Soleil Hamster,soleil@kunde.com,Dwight Schrute,38,Cloydfort,WA,45480,West,10,03-08-2021 12:26,2,10,Neutral
Multipurpose,13857.9,,"Docking one star because they could have better selections and offers. Otherwise, I love Dundler Mifflin and see ourselves becoming repeat customers!",99 Rowland Court,36.758474,-94.054314,EXPRESS,0436202f-7e4b-4807-b67f-7b7ed40f4d46,12-07-2021 12:56,COMPLETED,,3R02047,"Xerox Vitality Multipurpose Paper, 8.5"" x 11"", 20 lbs., White, 500 Sheets/Ream, 10 Reams/Carton",65.99,3.96,100,210,799,BIWEEK,60906229fc13ae0a6b00003b,Wilderman-Strosin,Tammi Monkey,tammi@wilderman-strosin.com,Dwight Schrute,139,Lake Demetrisport,KY,64970,South,3,22-07-2021 15:20,4,7,Positive
Printer,2126.4,,"Docking one star because they could have better selections and offers. Otherwise, I love Dundler Mifflin and see ourselves becoming repeat customers!",97965 Blaine Parkway,41.285469,-75.896388,EXPRESS,084497f9-f967-4c69-8b89-aba5693f6497,19-03-2021 03:23,COMPLETED,,191259,"JAM Paper Strathmore 24lb Paper, 8.5 x 11, Ivory Wove, 100 Sheets/Pack",13.29,,100,160,942,WEEK,60906229fc13ae0a6b0001ce,Kuhlman-Hintz,Vesta Sheep,vesta@kuhlman-hintz.com,Andy Bernard,146,Irmaside,FL,18790,South,3,12-04-2021 13:28,4,1,Positive
Multipurpose,8600.9,,"Docking one star because they could have better selections and offers. Otherwise, I love Dundler Mifflin and see ourselves becoming repeat customers!",296 Ridgeview Way,44.473735,-73.19561,EXPRESS,290ea6df-94dc-4ce8-8cc6-c218916fa034,19-06-2021 19:01,COMPLETED,,OX9001,"Boise X-9 Multipurpose Paper, 20 lbs., 92 Brightness, 500 Sheets/Ream, 10 Reams/Carton",78.19,,100,110,536,BIWEEK,60906229fc13ae0a6b000157,Aufderhar Inc,Spike Rhino,spike@aufderhar.com,Dwight Schrute,56,Vancefurt,AL,5405,South,4,03-07-2021 10:52,4,5,Positive
Kraft Roll,1199.8,,"Docking one star because they could have better selections and offers. Otherwise, I love Dundler Mifflin and see ourselves becoming repeat customers!",032 Transport Trail,46.895385,-96.807848,REGULAR,2ecd8b14-c014-4711-9807-aec3d59e0e73,03-06-2021 20:02,COMPLETED,,310-36-40,"Delta Paper Butcher Paper Roll, White, 40 lbs., 36"" x 1000', 1 Roll",59.99,6.6,,20,711,ANNUAL,60906229fc13ae0a6b000083,Brown-Koch,Bonbon Rabbit,bonbon@brown-koch.com,Creed Patton,107,Lake Maia,MI,58130,Midwest,5,15-06-2021 04:12,4,8,Positive
Printer,1860.6,,"Docking one star because they could have better selections and offers. Otherwise, I love Dundler Mifflin and see ourselves becoming repeat customers!",0610 Reindahl Lane,40.734708,-95.156343,REGULAR,38191650-9275-40bf-b936-7c8a7d8ceb06,30-11-2021 15:24,COMPLETED,,191259,"JAM Paper Strathmore 24lb Paper, 8.5 x 11, Ivory Wove, 100 Sheets/Pack",13.29,,,140,637,BIWEEK,60906229fc13ae0a6b0001e4,"Oberbrunner, Rolfson and Considine",Prince Frog,prince@oberbrunner.com,Andy Bernard,69,South Malinda,HI,51990,West,9,17-12-2021 08:12,4,5,Positive
Cardstock,18907.9,,"Docking one star because they could have better selections and offers. Otherwise, I love Dundler Mifflin and see ourselves becoming repeat customers!",77 Clemons Plaza,35.571971,-82.614729,REGULAR,40473c8b-aec3-4bc6-b436-53c09db3e3ed,15-09-2021 19:38,COMPLETED,,3R11458,"Xerox Bold 8.5"" x 11"" Cardstock Paper, 80 lbs, 94 Brightness, 250/Ream, 8 Reams/Carton",171.89,10.31,,110,3438,ANNUAL,60906229fc13ae0a6b000070,"Green, Mante and Ritchie",Chow Bear,chow@green.com,Kevin Malone,103,Port Urban,NY,28893,Northeast,3,16-10-2021 00:41,4,4,Positive
Multipurpose,161006.3,,"Docking one star because they could have better selections and offers. Otherwise, I love Dundler Mifflin and see ourselves becoming repeat customers!",70536 Holy Cross Plaza,39.589695,-84.558089,EXPRESS,541393e4-66ef-46d2-9447-02592e3ec1e2,30-07-2021 12:50,COMPLETED,,2700-LQO,"EarthChoice Multipurpose Paper, 20 lbs., 92 Brightness, 40 Cases/Pallet",2300.09,,100,70,2258,ANNUAL,60906229fc13ae0a6b0002b2,Windler and Sons,Monty Monkey,monty@windler.com,Dwight Schrute,60,New Janismouth,TN,45097,South,3,18-08-2021 18:06,4,2,Positive
Multipurpose,19618.2,,"Docking one star because they could have better selections and offers. Otherwise, I love Dundler Mifflin and see ourselves becoming repeat customers!",5 Daystar Junction,39.834292,-75.228355,REGULAR,555086b2-2485-4a18-ae68-ba63cb3e4975,13-02-2021 19:32,COMPLETED,,NMP1124,"Navigator Premium Multipurpose Paper, 24 lbs., 99 Brightness, 500/Ream, 10 Reams/Carton",108.99,,,180,824,BIWEEK,60906229fc13ae0a6b000172,"Labadie, Emard and Gusikowski",Carmen Rabbit,carmen@labadie.com,Andy Bernard,108,Schulistland,FL,8066,South,6,14-03-2021 19:03,4,2,Positive
Cardstock,3437.8,,"Docking one star because they could have better selections and offers. Otherwise, I love Dundler Mifflin and see ourselves becoming repeat customers!",010 Memorial Circle,43.011068,-83.794875,REGULAR,5f8ff964-0ef2-43b5-902a-2957a7adf065,13-11-2021 17:01,COMPLETED,,3R11458,"Xerox Bold 8.5"" x 11"" Cardstock Paper, 80 lbs, 94 Brightness, 250/Ream, 8 Reams/Carton",171.89,6.88,,20,4897,ANNUAL,60906229fc13ae0a6b0001e5,Grant-Crist,Cube Penguin,cube@grant-crist.com,Michael Scott,48,South Fletatown,ME,48540,Northeast,2,30-11-2021 08:22,4,11,Positive
Multipurpose,3127.6,,"Docking one star because they could have better selections and offers. Otherwise, I love Dundler Mifflin and see ourselves becoming repeat customers!",7902 Fairview Center,34.149588,-118.489708,REGULAR,6661424a-c322-4859-b257-f4a3e135c352,08-08-2021 13:20,COMPLETED,,OX9001,"Boise X-9 Multipurpose Paper, 20 lbs., 92 Brightness, 500 Sheets/Ream, 10 Reams/Carton",78.19,,,40,324,WEEK,60906229fc13ae0a6b0003be,Jerde-Hand,Rowan Tiger,rowan@jerde-hand.com,Creed Patton,90,East Eleonore,WA,91440,West,8,23-08-2021 04:56,4,6,Positive
Multipurpose,234390,,"Docking one star because they could have better selections and offers. Otherwise, I love Dundler Mifflin and see ourselves becoming repeat customers!",04 Transport Hill,44.311313,-88.24431,EXPRESS,821a399f-de55-4d1b-b548-8233a6308361,21-04-2021 18:15,COMPLETED,,TR56962-LQO,"TRU RED,¢ Multipurpose Paper, 20 lbs., 96 Bright, 500 /Ream, 10 Reams/Carton, 40 Cartons/Pallet",1803,,100,130,227,MONTH,60906229fc13ae0a6b0000ef,Rolfson-Greenfelder,Paula Bear,paula@rolfson-greenfelder.com,Andy Bernard,143,Gottliebberg,AL,54133,South,4,14-05-2021 05:03,4,15,Positive
Multipurpose,3959.4,,"Docking one star because they could have better selections and offers. Otherwise, I love Dundler Mifflin and see ourselves becoming repeat customers!",08781 3rd Street,41.790684,-76.355747,EXPRESS,9f1d45ea-3ae8-4b47-b6ff-6aabd991288e,13-05-2021 23:53,COMPLETED,,3R02047,"Xerox Vitality Multipurpose Paper, 8.5"" x 11"", 20 lbs., White, 500 Sheets/Ream, 10 Reams/Carton",65.99,3.96,100,60,810,ANNUAL,60906229fc13ae0a6b000168,"Daugherty, Kreiger and Hansen",Sterling Eagle,sterling@daugherty.com,Phyllis Vance,51,Jaskolskifurt,KS,18857,Midwest,1,13-06-2021 19:05,4,1,Positive
Multipurpose,414016.2,,"Docking one star because they could have better selections and offers. Otherwise, I love Dundler Mifflin and see ourselves becoming repeat customers!",778 Elka Trail,39.842678,-79.899964,EXPRESS,a0245ff7-e45a-4cda-89e0-8d21c2e1bd3a,03-10-2021 16:14,COMPLETED,,2700-LQO,"EarthChoice Multipurpose Paper, 20 lbs., 92 Brightness, 40 Cases/Pallet",2300.09,,100,180,1867,ANNUAL,60906229fc13ae0a6b0001d7,"Hilpert, Schaden and Lind",Julia Ostrich,julia@hilpert.com,Erin Hannon,21,South Adrienne,WV,15461,South,3,20-10-2021 01:07,4,14,Positive
Kraft Roll,6052,,"Docking one star because they could have better selections and offers. Otherwise, I love Dundler Mifflin and see ourselves becoming repeat customers!",1 Pawling Street,36.432843,-78.05017,REGULAR,a24d7dd4-1bf5-43db-9da8-b5be4897d5ec,17-07-2021 06:05,COMPLETED,,C2130240ST,"Delta Paper Kraft Paper Roll, Brown, 30 lbs., 24"" x 1200', 1 Roll",35.6,7.12,,170,286,MONTH,60906229fc13ae0a6b0000e3,"Kertzmann, Dooley and Konopelski",Gala Pig,gala@kertzmann.com,Dwight Schrute,58,Port Libbie,NV,27552,West,9,27-07-2021 22:10,4,12,Positive
Kraft Roll,7120,,"Docking one star because they could have better selections and offers. Otherwise, I love Dundler Mifflin and see ourselves becoming repeat customers!",88746 Ruskin Hill,42.811821,-103.330405,REGULAR,b050e8a8-66ee-461d-8e1e-02212e7a0fa8,05-09-2021 14:44,COMPLETED,,C2130240ST,"Delta Paper Kraft Paper Roll, Brown, 30 lbs., 24"" x 1200', 1 Roll",35.6,1.78,,200,508,BIWEEK,60906229fc13ae0a6b000154,Hansen-Pagac,Gwen Penguin,gwen@hansen-pagac.com,Dwight Schrute,62,Ebertland,MT,69806,West,8,24-09-2021 11:08,4,7,Positive
Cardstock,774.9,,"Docking one star because they could have better selections and offers. Otherwise, I love Dundler Mifflin and see ourselves becoming repeat customers!",66477 Cherokee Drive,41.156796,-111.965799,REGULAR,c1214812-6444-4561-bf72-52abdd868507,09-03-2021 19:19,COMPLETED,,91335,"Neenah Paper Creative Collection Basic 8.5"" x 11"" Cardstock Paper, 65 lbs., 50 Sheets/Pack",3.69,,,210,185,MONTH,60906229fc13ae0a6b0002fc,Wiegand-O'Hara,Mathilda Kangaroo,mathilda@wiegand-ohara.com,Angela Martin,24,South Yvonneside,NJ,84409,Northeast,2,04-04-2021 04:26,4,5,Positive
Cardstock,184.5,,"Docking one star because they could have better selections and offers. Otherwise, I love Dundler Mifflin and see ourselves becoming repeat customers!",34262 Fremont Junction,32.673313,-80.765932,EXPRESS,c9cfda1c-61b3-4e56-9bcc-d255c49e38c6,17-03-2021 15:50,COMPLETED,,91335,"Neenah Paper Creative Collection Basic 8.5"" x 11"" Cardstock Paper, 65 lbs., 50 Sheets/Pack",3.69,,100,50,767,ANNUAL,60906229fc13ae0a6b0002e0,Little LLC,Chrissy Rabbit,chrissy@little.com,Stanley Hudson,56,Halvorsonland,DE,29967,South,5,15-04-2021 02:09,4,12,Positive
Cardstock,13751.2,,"Docking one star because they could have better selections and offers. Otherwise, I love Dundler Mifflin and see ourselves becoming repeat customers!",482 Londonderry Plaza,39.025896,-95.72227,REGULAR,fcf71226-0e6f-4ac6-afff-19b90c431cb3,24-12-2021 21:47,COMPLETED,,3R11458,"Xerox Bold 8.5"" x 11"" Cardstock Paper, 80 lbs, 94 Brightness, 250/Ream, 8 Reams/Carton",171.89,12.03,,80,1133,ANNUAL,60906229fc13ae0a6b000116,Bernhard-Oberbrunner,Kody Cub,kody@bernhard-oberbrunner.com,Stanley Hudson,41,Bednarborough,KS,66675,Midwest,3,15-01-2022 09:32,4,5,Positive
Multipurpose,437017.1,,Excellent,5150 Judy Junction,38.815789,-77.154271,REGULAR,068e0312-66bb-432a-bab0-e2116daf9afd,23-03-2021 06:52,COMPLETED,,2700-LQO,"EarthChoice Multipurpose Paper, 20 lbs., 92 Brightness, 40 Cases/Pallet",2300.09,,,190,3589,ANNUAL,60906229fc13ae0a6b00003f,"Rogahn, Beahan and Fritsch",Egbert Chicken,egbert@rogahn.com,Andy Bernard,105,Lake Curtfurt,AZ,22313,West,10,15-04-2021 21:45,5,1,Positive
Multipurpose,126210,,Excellent,3081 Lillian Road,37.259634,-83.577025,EXPRESS,160ee3ec-23fc-4737-b3f4-dc1565bba7af,05-03-2021 00:08,COMPLETED,,TR56962-LQO,"TRU RED,¢ Multipurpose Paper, 20 lbs., 96 Bright, 500 /Ream, 10 Reams/Carton, 40 Cartons/Pallet",1803,,100,70,750,ANNUAL,60906229fc13ae0a6b0003d3,"Rolfson, Klein and Konopelski",Elmer Horse,elmer@rolfson.com,Oscar Martinez,6,North Olga,WV,40973,South,4,25-03-2021 14:17,5,14,Positive
Multipurpose,5279.2,,Excellent,519 Ludington Park,32.094109,-111.349265,REGULAR,2d1d4293-198e-4f0b-bccd-ed6579d92179,17-08-2021 21:55,COMPLETED,,3R02047,"Xerox Vitality Multipurpose Paper, 8.5"" x 11"", 20 lbs., White, 500 Sheets/Ream, 10 Reams/Carton",65.99,10.56,,80,986,ANNUAL,60906229fc13ae0a6b0002c1,Bode-Abbott,Leopold Lion,leopold@bode-abbott.com,Pam Beesly,111,Port Titostad,MI,85735,Midwest,4,10-09-2021 10:39,5,13,Positive
Multipurpose,13078.8,,Excellent,26160 Dovetail Plaza,39.678464,-75.752273,REGULAR,32258458-f9e2-4d45-90b8-42eed187549a,27-08-2021 11:43,COMPLETED,,NMP1124,"Navigator Premium Multipurpose Paper, 24 lbs., 99 Brightness, 500/Ream, 10 Reams/Carton",108.99,,,120,92,MONTH,60906229fc13ae0a6b0001b6,Metz LLC,Derwin Duck,derwin@metz.com,Stanley Hudson,26,New Zackbury,NY,19718,Northeast,3,10-09-2021 10:46,5,8,Positive
Multipurpose,324540,,Excellent,82283 Katie Street,38.259262,-94.300276,EXPRESS,3f99bcd8-e8ea-4293-9d2c-8f2a9cb587f3,21-02-2021 11:58,COMPLETED,,TR56962-LQO,"TRU RED,¢ Multipurpose Paper, 20 lbs., 96 Bright, 500 /Ream, 10 Reams/Carton, 40 Cartons/Pallet",1803,,100,180,586,BIWEEK,60906229fc13ae0a6b0003a9,Beier-Nitzsche,Katt Cat,katt@beier-nitzsche.com,Angela Martin,148,Lake Haylie,OR,64731,West,5,04-03-2021 22:46,5,4,Positive
Printer,1978.5,,Excellent,0 Alpine Circle,38.955565,-94.679875,EXPRESS,400280c2-d8f9-410b-9411-ff4f6b1173bf,03-11-2021 03:45,COMPLETED,,20270,"Astrobrights Color Paper, 24 lb./89 gsm, Neon 5-Color Assortment, 500 Sheets/Pack",13.19,,100,150,318,BIWEEK,60906229fc13ae0a6b0001da,"Blanda, Gleason and Smitham",Poncho Cub,poncho@blanda.com,Oscar Martinez,90,Noetown,TX,66212,South,3,28-11-2021 09:59,5,4,Positive
Kraft Roll,4984,,Excellent,4832 Elmside Center,36.137283,-103.123139,REGULAR,6329cb86-fdd5-47a4-aef1-e9b1bab02760,25-10-2021 02:09,COMPLETED,,C2130240ST,"Delta Paper Kraft Paper Roll, Brown, 30 lbs., 24"" x 1200', 1 Roll",35.6,6.05,,140,228,MONTH,60906229fc13ae0a6b000143,"Berge, Fritsch and Hermiston",Kitt Kangaroo,kitt@berge.com,Michael Scott,21,Pfannerstillville,UT,88894,West,8,12-11-2021 11:16,5,5,Positive
Printer,1582.8,,Excellent,926 Corben Lane,39.377041,-75.023374,REGULAR,6575670c-f0aa-4429-8e7b-fb850fd0a782,23-06-2021 15:41,COMPLETED,,20270,"Astrobrights Color Paper, 24 lb./89 gsm, Neon 5-Color Assortment, 500 Sheets/Pack",13.19,,,120,81,MONTH,60906229fc13ae0a6b000342,"Beahan, Goodwin and Walker",Mac Dog,mac@beahan.com,Oscar Martinez,13,New Clairefurt,MN,8333,Midwest,5,05-07-2021 06:49,5,2,Positive
Kraft Roll,4984,,Excellent,508 Spohn Alley,21.468626,-158.166919,REGULAR,6dac0608-a4ac-4b24-933c-0f618958a843,16-02-2021 17:49,COMPLETED,,C2130240ST,"Delta Paper Kraft Paper Roll, Brown, 30 lbs., 24"" x 1200', 1 Roll",35.6,1.78,,140,358,BIWEEK,60906229fc13ae0a6b000032,"Borer, Pollich and Walsh",Ursala Bear,ursala@borer.com,Meredith Palmer,122,Wildermanland,OH,96792,Midwest,3,01-03-2021 15:25,5,8,Positive
Cardstock,295.2,,Excellent,4039 Dawn Parkway,43.069849,-89.422525,REGULAR,710027fe-ea55-44ab-af42-823c024877cf,27-03-2021 14:43,COMPLETED,,91335,"Neenah Paper Creative Collection Basic 8.5"" x 11"" Cardstock Paper, 65 lbs., 50 Sheets/Pack",3.69,,,80,90,MONTH,60906229fc13ae0a6b00010d,Terry-Frami,Dizzy Elephant,dizzy@terry-frami.com,Kelly Kapoor,42,Magdalenbury,DE,53752,South,5,19-04-2021 08:00,5,3,Positive
Multipurpose,90150,,Excellent,02 Stone Corner Crossing,37.824047,-90.544546,REGULAR,7205f2a3-14dd-46cd-8fd0-ee7871dc07c5,16-01-2021 09:23,COMPLETED,,TR56962-LQO,"TRU RED,¢ Multipurpose Paper, 20 lbs., 96 Bright, 500 /Ream, 10 Reams/Carton, 40 Cartons/Pallet",1803,,,50,694,ANNUAL,60906229fc13ae0a6b0003d9,Anderson LLC,Clyde Horse,clyde@anderson.com,Pam Beesly,137,Ziemannport,NJ,63609,Northeast,3,09-02-2021 20:54,5,8,Positive
Kraft Roll,599.9,,Excellent,46242 Twin Pines Lane,33.832642,-93.126092,EXPRESS,759a6ce2-57bb-42ad-8a15-6bbc619579fd,07-07-2021 18:52,COMPLETED,,310-36-40,"Delta Paper Butcher Paper Roll, White, 40 lbs., 36"" x 1000', 1 Roll",59.99,7.8,100,10,326,ANNUAL,60906229fc13ae0a6b0001b8,"Ledner, Volkman and Osinski",Curt Bear,curt@ledner.com,Meredith Palmer,66,Howemouth,LA,71781,South,5,03-08-2021 13:06,5,2,Positive
Kraft Roll,712,,Excellent,72542 Vidon Way,33.607259,-90.776876,EXPRESS,9d09d3bc-d7e5-41d6-a7f5-fc4e329be457,26-12-2021 09:22,COMPLETED,,C2130240ST,"Delta Paper Kraft Paper Roll, Brown, 30 lbs., 24"" x 1200', 1 Roll",35.6,6.05,100,20,344,ANNUAL,60906229fc13ae0a6b000217,Stanton Group,Keaton Eagle,keaton@stanton.com,Angela Martin,30,Sidberg,HI,38773,West,7,13-01-2022 18:43,5,14,Positive
Multipurpose,46001.8,,Excellent,32669 Holy Cross Junction,46.739365,-111.905529,EXPRESS,ab7f2696-a017-420c-99c3-ba17b7ebd028,07-11-2021 13:59,COMPLETED,,2700-LQO,"EarthChoice Multipurpose Paper, 20 lbs., 92 Brightness, 40 Cases/Pallet",2300.09,,100,20,2993,ANNUAL,60906229fc13ae0a6b000233,"Shanahan, Herzog and Fisher",Angus Bull,angus@shanahan.com,Kelly Kapoor,129,Cristfurt,VT,59618,Northeast,1,07-12-2021 11:06,5,12,Positive
Copy,71950,,Excellent,3443 Delaware Court,43.26045,-75.85258,REGULAR,cb5ce7c8-83bd-4732-b663-4ad0539d4570,22-07-2021 23:22,COMPLETED,,324791-LQO,"Copy Paper, 20 lbs., 92 Brightness, 500 Sheets/Ream, 40 Cases/Pallet",1439,,,50,520,ANNUAL,60906229fc13ae0a6b000367,Heaney LLC,Hopkins Rabbit,hopkins@heaney.com,Kelly Kapoor,102,Edgarport,AL,13043,South,6,18-08-2021 21:42,5,9,Positive
Multipurpose,9898.5,,Excellent,8380 Emmet Junction,37.945512,-122.56012,EXPRESS,d1be143d-84f1-4a5b-ba68-e82010a8aa02,17-06-2021 18:50,COMPLETED,,3R02047,"Xerox Vitality Multipurpose Paper, 8.5"" x 11"", 20 lbs., White, 500 Sheets/Ream, 10 Reams/Carton",65.99,13.2,100,150,922,WEEK,60906229fc13ae0a6b0002a4,"McGlynn, Kohler and Kerluke",Ursala Bear,ursala@mcglynn.com,Erin Hannon,55,Wilfordfort,SC,94917,South,3,30-06-2021 15:43,5,15,Positive
Kraft Roll,2136,,Excellent,40 Hintze Street,40.08916,-88.477814,EXPRESS,e1bf0742-f42a-47a4-b313-0d65d0e4e69b,13-09-2021 02:40,COMPLETED,,C2130240ST,"Delta Paper Kraft Paper Roll, Brown, 30 lbs., 24"" x 1200', 1 Roll",35.6,8.54,100,60,641,ANNUAL,60906229fc13ae0a6b000131,Von Ltd,Tammi Monkey,tammi@von.com,Oscar Martinez,89,East Joannieburgh,MT,61896,West,7,10-10-2021 18:16,5,12,Positive
Multipurpose,11728.5,,"Excellent customer service. The product itself is standard, but I enjoy working with my account manager so much that we end up resubscribing.",2476 Boyd Avenue,44.971976,-93.233777,REGULAR,0bab86d4-ceb1-4d37-97de-bb6037150493,12-06-2021 08:48,COMPLETED,,OX9001,"Boise X-9 Multipurpose Paper, 20 lbs., 92 Brightness, 500 Sheets/Ream, 10 Reams/Carton",78.19,,,150,22,MONTH,60906229fc13ae0a6b0003ac,Schroeder LLC,Pate Duck,pate@schroeder.com,Stanley Hudson,117,Jenkinsbury,OK,55474,South,7,11-07-2021 00:10,4,9,Positive
Multipurpose,207008.1,,"Excellent customer service. The product itself is standard, but I enjoy working with my account manager so much that we end up resubscribing.",0 Farwell Way,38.936354,-76.999167,REGULAR,17228e03-3f06-4525-adca-77742898c2d2,07-06-2021 14:10,COMPLETED,,2700-LQO,"EarthChoice Multipurpose Paper, 20 lbs., 92 Brightness, 40 Cases/Pallet",2300.09,,,90,1544,ANNUAL,60906229fc13ae0a6b00004f,Ledner LLC,Broccolo Mouse,broccolo@ledner.com,Kevin Malone,39,Douglasborough,AL,20092,South,6,03-07-2021 03:36,4,2,Positive
Multipurpose,391015.3,,"Excellent customer service. The product itself is standard, but I enjoy working with my account manager so much that we end up resubscribing.",7879 Ridge Oak Parkway,41.639445,-70.624515,EXPRESS,186e0143-f24e-4513-8a67-0b09a0c376ef,27-12-2021 16:24,COMPLETED,,2700-LQO,"EarthChoice Multipurpose Paper, 20 lbs., 92 Brightness, 40 Cases/Pallet",2300.09,,100,170,1511,WEEK,60906229fc13ae0a6b0000b5,Prosacco-Johns,Tammy Cub,tammy@prosacco-johns.com,Angela Martin,84,Alejandrinstad,SC,2556,South,4,17-01-2022 21:55,4,5,Positive
Copy,129510,,"Excellent customer service. The product itself is standard, but I enjoy working with my account manager so much that we end up resubscribing.",3322 Mallard Hill,40.889743,-73.942029,REGULAR,221e1d59-8088-4306-a946-8aed4c3514cd,19-12-2021 07:28,COMPLETED,,324791-LQO,"Copy Paper, 20 lbs., 92 Brightness, 500 Sheets/Ream, 40 Cases/Pallet",1439,,,90,420,BIWEEK,60906229fc13ae0a6b0002e2,Kassulke-Cummings,Caroline Squirrel,caroline@kassulke-cummings.com,Andy Bernard,66,Aliyahport,DE,7638,South,5,17-01-2022 21:52,4,6,Positive
Multipurpose,9382.8,,"Excellent customer service. The product itself is standard, but I enjoy working with my account manager so much that we end up resubscribing.",0345 Maryland Center,37.945704,-103.157396,REGULAR,26ab3a5a-3045-418f-a70a-dc4d2f84430d,18-08-2021 13:38,COMPLETED,,OX9001,"Boise X-9 Multipurpose Paper, 20 lbs., 92 Brightness, 500 Sheets/Ream, 10 Reams/Carton",78.19,,,120,634,WEEK,60906229fc13ae0a6b000231,Maggio PLC,Snake Rabbit,snake@maggio.com,Pam Beesly,59,Kautzerville,ME,81054,Northeast,1,11-09-2021 10:31,4,7,Positive
Multipurpose,162270,,"Excellent customer service. The product itself is standard, but I enjoy working with my account manager so much that we end up resubscribing.",1 Pepper Wood Trail,26.692897,-82.034065,REGULAR,441162ee-9aba-4763-ae24-75e0e91c823e,13-03-2021 10:01,COMPLETED,,TR56962-LQO,"TRU RED,¢ Multipurpose Paper, 20 lbs., 96 Bright, 500 /Ream, 10 Reams/Carton, 40 Cartons/Pallet",1803,,,90,911,ANNUAL,60906229fc13ae0a6b000020,Mayer-Kozey,Dobie Wolf,dobie@mayer-kozey.com,Dwight Schrute,36,North Elyseborough,MT,34084,West,10,24-03-2021 02:49,4,4,Positive
Kraft Roll,2848,,"Excellent customer service. The product itself is standard, but I enjoy working with my account manager so much that we end up resubscribing.",90301 Katie Hill,39.906248,-75.324733,REGULAR,4d7c8360-3833-49f2-965f-07d0e5ae8ab2,21-02-2021 07:38,COMPLETED,,C2130240ST,"Delta Paper Kraft Paper Roll, Brown, 30 lbs., 24"" x 1200', 1 Roll",35.6,2.14,,80,460,WEEK,60906229fc13ae0a6b000257,Fritsch Inc,Cyd Elephant,cyd@fritsch.com,Pam Beesly,2,New Salma,TN,19071,South,5,14-03-2021 18:41,4,2,Positive
Multipurpose,46001.8,,"Excellent customer service. The product itself is standard, but I enjoy working with my account manager so much that we end up resubscribing.",7 Ramsey Plaza,39.675999,-106.308296,EXPRESS,4f8c6234-57fd-45b4-a117-4a468912eeb6,04-02-2021 20:19,COMPLETED,,2700-LQO,"EarthChoice Multipurpose Paper, 20 lbs., 92 Brightness, 40 Cases/Pallet",2300.09,,100,20,3617,ANNUAL,60906229fc13ae0a6b0002f4,Jerde-Fay,Anicotti Mouse,anicotti@jerde-fay.com,Angela Martin,83,Travonchester,MT,81928,West,7,17-02-2021 03:31,4,4,Positive
Multipurpose,483018.9,,"Excellent customer service. The product itself is standard, but I enjoy working with my account manager so much that we end up resubscribing.",87 Milwaukee Plaza,39.870996,-95.253591,EXPRESS,51975d9f-64ae-45de-936c-62e11f497059,22-03-2021 13:01,COMPLETED,,2700-LQO,"EarthChoice Multipurpose Paper, 20 lbs., 92 Brightness, 40 Cases/Pallet",2300.09,,100,210,3147,ANNUAL,60906229fc13ae0a6b000114,Auer Inc,Bonbon Rabbit,bonbon@auer.com,Creed Patton,6,Nienowfurt,WY,66038,West,6,03-04-2021 21:11,4,8,Positive
Multipurpose,2639.6,,"Excellent customer service. The product itself is standard, but I enjoy working with my account manager so much that we end up resubscribing.",84767 Graceland Parkway,35.86058,-80.099288,EXPRESS,61c13570-c857-46a4-8548-8ef110623083,31-10-2021 06:45,COMPLETED,,3R02047,"Xerox Vitality Multipurpose Paper, 8.5"" x 11"", 20 lbs., White, 500 Sheets/Ream, 10 Reams/Carton",65.99,8.58,100,40,724,ANNUAL,60906229fc13ae0a6b0002c9,O'Kon Group,Megan Bear,megan@okon.com,Pam Beesly,20,Wizaville,ME,27361,Northeast,1,24-11-2021 16:06,4,5,Positive
Multipurpose,11218.3,,"Excellent customer service. The product itself is standard, but I enjoy working with my account manager so much that we end up resubscribing.",57 Calypso Street,43.143932,-72.446437,REGULAR,af928e6f-3605-4f10-80f7-4d6d55152c55,06-01-2021 15:04,COMPLETED,,3R02047,"Xerox Vitality Multipurpose Paper, 8.5"" x 11"", 20 lbs., White, 500 Sheets/Ream, 10 Reams/Carton",65.99,7.92,,170,128,MONTH,60906229fc13ae0a6b0003b2,Sawayn LLC,Ricky Squirrel,ricky@sawayn.com,Angela Martin,145,Schaeferport,MS,3717,South,6,05-02-2021 01:24,4,14,Positive
Copy,143900,,"Excellent customer service. The product itself is standard, but I enjoy working with my account manager so much that we end up resubscribing.",52073 Wayridge Center,38.549422,-122.476382,REGULAR,c687a9d9-52a9-4855-adb8-0be373908f86,01-02-2021 00:46,COMPLETED,,324791-LQO,"Copy Paper, 20 lbs., 92 Brightness, 500 Sheets/Ream, 40 Cases/Pallet",1439,,,100,745,WEEK,60906229fc13ae0a6b000090,Zemlak Inc,Cleo Horse,cleo@zemlak.com,Creed Patton,150,Whitneymouth,NY,94576,Northeast,3,25-02-2021 03:25,4,3,Positive
Cardstock,22345.7,,"Excellent customer service. The product itself is standard, but I enjoy working with my account manager so much that we end up resubscribing.",92505 Northview Street,35.030496,-85.14578,EXPRESS,d6fb1694-9673-4fc6-864d-44b377f5f362,03-10-2021 14:04,COMPLETED,,3R11458,"Xerox Bold 8.5"" x 11"" Cardstock Paper, 80 lbs, 94 Brightness, 250/Ream, 8 Reams/Carton",171.89,25.78,100,130,1036,WEEK,60906229fc13ae0a6b000241,"Bauch, Osinski and Reynolds",Bud Lion,bud@bauch.com,Stanley Hudson,44,East Kaseymouth,ME,37467,Northeast,1,23-10-2021 10:14,4,13,Positive
Multipurpose,21798,,"Excellent customer service. The product itself is standard, but I enjoy working with my account manager so much that we end up resubscribing.",90860 Columbus Pass,40.26491,-81.731281,EXPRESS,d9dd1f0b-4e4f-4dda-8d47-85be48f3174d,25-10-2021 13:28,COMPLETED,,NMP1124,"Navigator Premium Multipurpose Paper, 24 lbs., 99 Brightness, 500/Ream, 10 Reams/Carton",108.99,,100,200,40,MONTH,60906229fc13ae0a6b0000bf,Armstrong Group,Canberra Koala,canberra@armstrong.com,Erin Hannon,148,New Wendell,WV,43871,South,3,06-11-2021 10:06,4,14,Positive
Cardstock,15470.1,,"Excellent customer service. The product itself is standard, but I enjoy working with my account manager so much that we end up resubscribing.",80092 Morning Parkway,35.676177,-108.758564,REGULAR,ed14f838-4549-426b-8850-63848e50876b,17-01-2021 12:28,COMPLETED,,3R11458,"Xerox Bold 8.5"" x 11"" Cardstock Paper, 80 lbs, 94 Brightness, 250/Ream, 8 Reams/Carton",171.89,34.38,,90,1147,ANNUAL,60906229fc13ae0a6b000115,"Romaguera, Schneider and Wilderman",Ribbot Frog,ribbot@romaguera.com,Creed Patton,82,Spencerburgh,TX,87393,South,5,30-01-2021 13:55,4,7,Positive
Copy,273410,,"Excellent customer service. The product itself is standard, but I enjoy working with my account manager so much that we end up resubscribing.",23 7th Avenue,30.391248,-91.090342,REGULAR,f80284f4-06e1-4e02-b8bf-9cb0c8a5e221,05-02-2021 12:12,COMPLETED,,324791-LQO,"Copy Paper, 20 lbs., 92 Brightness, 500 Sheets/Ream, 40 Cases/Pallet",1439,,,190,414,BIWEEK,60906229fc13ae0a6b000276,Shields-Mohr,Francine Rabbit,francine@shields-mohr.com,Phyllis Vance,62,Lake Meghan,NV,70937,West,7,03-03-2021 15:34,4,7,Positive
Cardstock,590.4,,"Excellent customer service. The product itself is standard, but I enjoy working with my account manager so much that we end up resubscribing.",279 La Follette Center,44.251183,-83.814184,REGULAR,ffc9170f-851b-4819-850c-9e6ca7225fa6,10-11-2021 16:06,COMPLETED,,91335,"Neenah Paper Creative Collection Basic 8.5"" x 11"" Cardstock Paper, 65 lbs., 50 Sheets/Pack",3.69,,,160,902,WEEK,60906229fc13ae0a6b000028,Kutch-Witting,Robin Bird,robin@kutch-witting.com,Oscar Martinez,146,Vandervortburgh,NY,48793,Northeast,1,09-12-2021 22:49,4,13,Positive
Cardstock,1718.9,,Found this site through a coupon deal and got a great deal!,9 Montana Plaza,38.982087,-92.951995,EXPRESS,2c2d34a1-755a-42a3-a9be-b14ff37ad8f3,11-01-2021 18:27,COMPLETED,,3R11458,"Xerox Bold 8.5"" x 11"" Cardstock Paper, 80 lbs, 94 Brightness, 250/Ream, 8 Reams/Carton",171.89,22.35,100,10,3076,ANNUAL,60906229fc13ae0a6b0000fe,Lang-Hyatt,Chester Cub,chester@lang-hyatt.com,Meredith Palmer,83,HarÂªannstad,TX,65322,South,4,10-02-2021 17:15,5,10,Positive
Printer,1450.9,,Found this site through a coupon deal and got a great deal!,18 Eagle Crest Center,28.369422,-82.511021,EXPRESS,3b23ad00-b529-4bc1-8f05-566dca7d7882,29-12-2021 16:11,COMPLETED,,20270,"Astrobrights Color Paper, 24 lb./89 gsm, Neon 5-Color Assortment, 500 Sheets/Pack",13.19,,100,110,954,WEEK,60906229fc13ae0a6b0001a9,Kuvalis LLC,Rasher Pig,rasher@kuvalis.com,Kevin Malone,8,Brownview,UT,34611,West,7,17-01-2022 01:04,5,5,Positive
Multipurpose,1319.8,,Found this site through a coupon deal and got a great deal!,294 Dryden Parkway,37.560676,-81.738389,EXPRESS,5132e2b6-6aa0-4790-a4d8-d58470f1a277,09-03-2021 18:57,COMPLETED,,3R02047,"Xerox Vitality Multipurpose Paper, 8.5"" x 11"", 20 lbs., White, 500 Sheets/Ream, 10 Reams/Carton",65.99,11.22,100,20,110,WEEK,60906229fc13ae0a6b00008d,Feeney Group,Hopper Penguin,hopper@feeney.com,Meredith Palmer,86,East Conorbury,CT,24841,Northeast,1,08-04-2021 21:07,5,11,Positive
Multipurpose,23000.9,,Found this site through a coupon deal and got a great deal!,21534 Bowman Lane,39.372219,-84.890262,REGULAR,53a9a535-01be-463a-ac17-d1646434e224,26-10-2021 21:47,COMPLETED,,2700-LQO,"EarthChoice Multipurpose Paper, 20 lbs., 92 Brightness, 40 Cases/Pallet",2300.09,,,10,2260,ANNUAL,60906229fc13ae0a6b000178,Satterfield Group,Ruby Rabbit,ruby@satterfield.com,Erin Hannon,26,Lake Katrinahaven,KS,47016,Midwest,3,26-11-2021 10:30,5,14,Positive
Cardstock,12032.3,,Found this site through a coupon deal and got a great deal!,2980 Mayfield Circle,39.803019,-87.403057,REGULAR,76144e53-8b81-45e0-9921-2c2e73602906,08-01-2021 16:53,COMPLETED,,3R11458,"Xerox Bold 8.5"" x 11"" Cardstock Paper, 80 lbs, 94 Brightness, 250/Ream, 8 Reams/Carton",171.89,27.5,,70,4154,ANNUAL,60906229fc13ae0a6b000200,Bradtke Group,Curt Bear,curt@bradtke.com,Meredith Palmer,137,New Zelda,ME,47854,Northeast,1,19-01-2021 04:38,5,5,Positive
Multipurpose,13078.8,,Found this site through a coupon deal and got a great deal!,41262 Sunbrook Hill,33.252625,-114.620354,REGULAR,9c02903f-a98f-4ac0-8979-3936e55c4c44,10-02-2021 11:56,COMPLETED,,NMP1124,"Navigator Premium Multipurpose Paper, 24 lbs., 99 Brightness, 500/Ream, 10 Reams/Carton",108.99,,,120,848,WEEK,60906229fc13ae0a6b000190,Kuvalis-Jenkins,Shari Monkey,shari@kuvalis-jenkins.com,Meredith Palmer,121,Port Christinaton,OK,85329,South,7,03-03-2021 20:48,5,4,Positive
Cardstock,5156.7,,Found this site through a coupon deal and got a great deal!,6223 Texas Avenue,36.123929,-83.938617,REGULAR,adb0b2ef-f9ba-41c1-b6f2-5aafb5034285,28-11-2021 00:50,COMPLETED,,3R11458,"Xerox Bold 8.5"" x 11"" Cardstock Paper, 80 lbs, 94 Brightness, 250/Ream, 8 Reams/Carton",171.89,1.72,,30,2748,ANNUAL,60906229fc13ae0a6b00012c,Farrell Ltd,Vladimir Cub,vladimir@farrell.com,Stanley Hudson,145,Lake Aliceberg,MT,37965,West,9,20-12-2021 10:12,5,1,Positive
Cardstock,29221.3,,Found this site through a coupon deal and got a great deal!,91 Lukken Alley,34.737964,-120.543739,REGULAR,affa82d7-6349-43c1-bfbc-e337a765b54f,21-12-2021 23:59,COMPLETED,,3R11458,"Xerox Bold 8.5"" x 11"" Cardstock Paper, 80 lbs, 94 Brightness, 250/Ream, 8 Reams/Carton",171.89,42.97,,170,1275,WEEK,60906229fc13ae0a6b000343,"Homenick, Rau and Stark",Pinky Bear,pinky@homenick.com,Phyllis Vance,11,North Justusfurt,AL,93438,South,5,07-01-2022 13:40,5,3,Positive
Printer,2259.3,,Found this site through a coupon deal and got a great deal!,9 Sage Court,37.721052,-122.413573,REGULAR,d728ba32-ccfc-421c-854a-12da9fd51638,05-11-2021 06:04,COMPLETED,,191259,"JAM Paper Strathmore 24lb Paper, 8.5 x 11, Ivory Wove, 100 Sheets/Pack",13.29,,,170,111,MONTH,60906229fc13ae0a6b0001dc,Hammes-Rohan,Freya Wolf,freya@hammes-rohan.com,Kevin Malone,60,New Rosarioville,TN,94156,South,5,28-11-2021 19:01,5,8,Positive
Cardstock,701.1,,Found this site through a coupon deal and got a great deal!,33116 Hermina Hill,42.602059,-72.087015,EXPRESS,f8105998-bc20-4b6f-a6e9-7ee1b1dd0b82,30-05-2021 01:40,COMPLETED,,91335,"Neenah Paper Creative Collection Basic 8.5"" x 11"" Cardstock Paper, 65 lbs., 50 Sheets/Pack",3.69,,100,190,904,BIWEEK,60906229fc13ae0a6b00029f,McLaughlin Inc,Olaf Anteater,olaf@mclaughlin.com,Oscar Martinez,115,Mayborough,OH,1437,Midwest,3,22-06-2021 13:26,5,14,Positive
Copy,100730,,Great customer service. Great product. Would purchase again!!,971 Atwood Plaza,47.610726,-98.565277,REGULAR,122a71ca-f8a5-44d3-957e-fde54107345a,27-03-2021 03:46,COMPLETED,,324791-LQO,"Copy Paper, 20 lbs., 92 Brightness, 500 Sheets/Ream, 40 Cases/Pallet",1439,,,70,318,BIWEEK,60906229fc13ae0a6b0001bb,Batz Inc,Mitzi Cat,mitzi@batz.com,Angela Martin,69,Cristopherside,WV,58464,South,7,12-04-2021 00:25,5,2,Positive
Cardstock,22345.7,,Great customer service. Great product. Would purchase again!!,85 Reindahl Park,41.744069,-109.051037,EXPRESS,14082afe-5734-4da8-b462-22e4c15593d9,29-07-2021 04:12,COMPLETED,,3R11458,"Xerox Bold 8.5"" x 11"" Cardstock Paper, 80 lbs, 94 Brightness, 250/Ream, 8 Reams/Carton",171.89,27.5,100,130,2696,ANNUAL,60906229fc13ae0a6b0002ac,Dare and Sons,Cyrano Anteater,cyrano@dare.com,Kevin Malone,113,Jeraldshire,UT,82969,West,6,21-08-2021 12:50,5,8,Positive
Printer,1594.8,,Great customer service. Great product. Would purchase again!!,707 Ridgeway Drive,35.030496,-85.14578,EXPRESS,285e041a-76f8-4fa7-81b0-f1b693b3ef2d,17-01-2021 17:59,COMPLETED,,191259,"JAM Paper Strathmore 24lb Paper, 8.5 x 11, Ivory Wove, 100 Sheets/Pack",13.29,,100,120,441,BIWEEK,60906229fc13ae0a6b0000df,"Denesik, Flatley and DuBuque",Broffina Chicken,broffina@denesik.com,Meredith Palmer,136,VonRuedenside,ME,37424,Northeast,1,17-02-2021 02:51,5,2,Positive
Multipurpose,4359.6,,Great customer service. Great product. Would purchase again!!,82879 Merchant Parkway,41.575007,-87.262305,EXPRESS,628393a6-f2db-4609-9795-f1428f3cbf1d,30-08-2021 04:16,COMPLETED,,NMP1124,"Navigator Premium Multipurpose Paper, 24 lbs., 99 Brightness, 500/Ream, 10 Reams/Carton",108.99,,100,40,627,ANNUAL,60906229fc13ae0a6b000369,Farrell-Lind,Jambette Frog,jambette@farrell-lind.com,Stanley Hudson,34,West Katelyn,FL,46405,South,3,29-09-2021 02:35,5,1,Positive
Kraft Roll,2999.5,,Great customer service. Great product. Would purchase again!!,90559 Mayfield Court,39.035382,-77.092454,REGULAR,66c0653d-ba26-4595-a71c-f2c8d6042d05,12-08-2021 05:51,COMPLETED,,310-36-40,"Delta Paper Butcher Paper Roll, White, 40 lbs., 36"" x 1000', 1 Roll",59.99,0.6,,50,402,WEEK,60906229fc13ae0a6b000075,Hilpert-Morissette,Leopold Lion,leopold@hilpert-morissette.com,Creed Patton,108,Jessieland,ME,20896,Northeast,1,11-09-2021 02:58,5,10,Positive
Multipurpose,5279.2,,Great customer service. Great product. Would purchase again!!,77626 Sloan Lane,40.67383,-74.226408,REGULAR,6822661d-3952-41ba-8691-11060ddc2c16,09-08-2021 13:24,COMPLETED,,3R02047,"Xerox Vitality Multipurpose Paper, 8.5"" x 11"", 20 lbs., White, 500 Sheets/Ream, 10 Reams/Carton",65.99,5.28,,80,987,ANNUAL,60906229fc13ae0a6b000068,Kling and Sons,Rocket Gorilla,rocket@kling.com,Kevin Malone,65,Roobside,WV,7218,South,6,03-09-2021 11:14,5,8,Positive
Multipurpose,3909.5,,Great customer service. Great product. Would purchase again!!,50524 Moose Court,40.792052,-96.842655,REGULAR,9bbc6a2f-508b-45d8-aa48-d8ee0a3ffa54,08-12-2021 00:16,COMPLETED,,OX9001,"Boise X-9 Multipurpose Paper, 20 lbs., 92 Brightness, 500 Sheets/Ream, 10 Reams/Carton",78.19,,,50,678,ANNUAL,60906229fc13ae0a6b00030e,McClure LLC,Hazel Squirrel,hazel@mcclure.com,Pam Beesly,88,West Stephanie,HI,68577,West,8,24-12-2021 06:45,5,15,Positive
Cardstock,12032.3,,Great customer service. Great product. Would purchase again!!,86 Esch Place,37.474396,-120.875917,REGULAR,ba3fdb6e-3e89-4f06-b88e-8f8ab1581f00,21-06-2021 01:27,COMPLETED,,3R11458,"Xerox Bold 8.5"" x 11"" Cardstock Paper, 80 lbs, 94 Brightness, 250/Ream, 8 Reams/Carton",171.89,32.66,,70,2422,ANNUAL,60906229fc13ae0a6b0000cd,Franecki Ltd,Bones Dog,bones@franecki.com,Stanley Hudson,21,Lindgrenborough,NY,95381,Northeast,1,14-07-2021 02:11,5,7,Positive
Multipurpose,345013.5,,Great customer service. Great product. Would purchase again!!,5746 Golf Course Hill,33.768334,-118.201636,EXPRESS,d091061d-2146-484c-92a7-3b7f069e5405,01-12-2021 08:52,COMPLETED,,2700-LQO,"EarthChoice Multipurpose Paper, 20 lbs., 92 Brightness, 40 Cases/Pallet",2300.09,,100,150,1805,ANNUAL,60906229fc13ae0a6b00012a,Price PLC,Rooney Kangaroo,rooney@price.com,Creed Patton,6,Heidenreichstad,ME,90935,Northeast,1,22-12-2021 19:40,5,10,Positive
Copy,287800,,Great customer service. Great product. Would purchase again!!,1301 Hallows Circle,27.025247,-82.346959,REGULAR,d414140d-d32c-44dc-97f2-fa339f5eb9f5,05-11-2021 09:27,COMPLETED,,324791-LQO,"Copy Paper, 20 lbs., 92 Brightness, 500 Sheets/Ream, 40 Cases/Pallet",1439,,,200,89,MONTH,60906229fc13ae0a6b0000e9,Pfannerstill-Hoeger,Tex Penguin,tex@pfannerstill-hoeger.com,Kevin Malone,45,Okunevashire,SC,34404,South,7,04-12-2021 15:27,5,6,Positive
Printer,1450.9,,Great customer service. Great product. Would purchase again!!,74 Parkside Parkway,26.692897,-82.034065,REGULAR,d63090b6-ff34-4a63-8b9e-6145eb385478,24-08-2021 00:00,COMPLETED,,20270,"Astrobrights Color Paper, 24 lb./89 gsm, Neon 5-Color Assortment, 500 Sheets/Pack",13.19,,,110,192,MONTH,60906229fc13ae0a6b00037a,"Wisozk, Metz and Torp",Sydney Koala,sydney@wisozk.com,Stanley Hudson,120,West Raphaelton,SC,34072,South,5,05-09-2021 23:17,5,7,Positive
Kraft Roll,6764,,Great customer service. Great product. Would purchase again!!,70431 Oriole Drive,27.044099,-81.402766,EXPRESS,f3f758e8-e09a-46ab-b390-c77df531f93b,30-10-2021 10:34,COMPLETED,,C2130240ST,"Delta Paper Kraft Paper Roll, Brown, 30 lbs., 24"" x 1200', 1 Roll",35.6,5.34,100,190,270,MONTH,60906229fc13ae0a6b000104,"Kuvalis, Moore and McClure",Mac Dog,mac@kuvalis.com,Kevin Malone,142,Pricechester,PA,33960,Northeast,0,26-11-2021 14:10,5,7,Positive
Kraft Roll,5340,,Great deal,39 Gina Way,45.818549,-119.132853,REGULAR,076b8758-9d8c-4daf-83ef-a88fbb827e35,17-06-2021 18:40,COMPLETED,,C2130240ST,"Delta Paper Kraft Paper Roll, Brown, 30 lbs., 24"" x 1200', 1 Roll",35.6,2.85,,150,126,MONTH,60906229fc13ae0a6b000244,Smitham PLC,Curt Bear,curt@smitham.com,Angela Martin,18,Orvillefurt,NY,97875,Northeast,1,02-07-2021 05:57,5,3,Positive
Multipurpose,14168.7,,Great deal,47 Londonderry Pass,41.102896,-80.761275,REGULAR,081836da-0869-4d8e-9877-5d2c4e382ff0,23-07-2021 10:27,COMPLETED,,NMP1124,"Navigator Premium Multipurpose Paper, 24 lbs., 99 Brightness, 500/Ream, 10 Reams/Carton",108.99,,,130,854,WEEK,60906229fc13ae0a6b000082,Quitzon Group,Phoebe Ostrich,phoebe@quitzon.com,Phyllis Vance,6,West Dallasstad,VT,44543,Northeast,1,03-08-2021 08:03,5,11,Positive
Kraft Roll,5340,,Great deal,874 Dottie Trail,31.931233,-98.927404,EXPRESS,22e942d4-8f39-4906-8352-d530a51f7a2d,15-01-2021 10:02,COMPLETED,,C2130240ST,"Delta Paper Kraft Paper Roll, Brown, 30 lbs., 24"" x 1200', 1 Roll",35.6,3.2,100,150,858,WEEK,60906229fc13ae0a6b0000dc,"Funk, Feeney and Hyatt",Rodney Hamster,rodney@funk.com,Kelly Kapoor,17,New Ruben,MT,76857,West,6,02-02-2021 12:55,5,10,Positive
Cardstock,32659.1,,Great deal,77 Burrows Alley,61.253463,-149.810757,EXPRESS,3a0e8f74-ad59-4521-a142-cf0cffcd1d1c,24-03-2021 20:08,COMPLETED,,3R11458,"Xerox Bold 8.5"" x 11"" Cardstock Paper, 80 lbs, 94 Brightness, 250/Ream, 8 Reams/Carton",171.89,1.72,100,190,1207,WEEK,60906229fc13ae0a6b000015,Davis Inc,Henry Frog,henry@davis.com,Kevin Malone,8,Sanfordland,NY,99506,Northeast,0,16-04-2021 00:27,5,13,Positive
Multipurpose,162270,,Great deal,6793 Banding Drive,32.19061,-90.258327,REGULAR,400b31a8-e6d6-4533-b43a-d6fc64d7448f,25-05-2021 12:08,COMPLETED,,TR56962-LQO,"TRU RED,¢ Multipurpose Paper, 20 lbs., 96 Bright, 500 /Ream, 10 Reams/Carton, 40 Cartons/Pallet",1803,,,90,80,MONTH,60906229fc13ae0a6b000165,Hill Inc,Buzz Eagle,buzz@hill.com,Pam Beesly,107,South Wilhelmine,TN,39299,South,6,22-06-2021 08:03,5,3,Positive
Printer,2259.3,,Great deal,8601 Hanson Circle,31.09348,-104.624514,REGULAR,56b098ec-1c3c-4868-80c7-6560bfb83c3c,20-06-2021 20:15,COMPLETED,,191259,"JAM Paper Strathmore 24lb Paper, 8.5 x 11, Ivory Wove, 100 Sheets/Pack",13.29,,,170,650,BIWEEK,60906229fc13ae0a6b0000a5,"Denesik, Mayer and Walter",Beardo Bear,beardo@denesik.com,Kevin Malone,30,South Aurelia,MN,79861,Midwest,4,16-07-2021 23:23,5,6,Positive
Copy,115120,,Great deal,7106 Continental Road,42.950505,-87.860883,EXPRESS,714e90ae-2a22-4e6a-83dd-d10ebd3a5786,01-08-2021 17:14,COMPLETED,,324791-LQO,"Copy Paper, 20 lbs., 92 Brightness, 500 Sheets/Ream, 40 Cases/Pallet",1439,,100,80,104,MONTH,60906229fc13ae0a6b0001ac,Tillman LLC,Spork Pig,spork@tillman.com,Erin Hannon,89,West Guidomouth,HI,53112,West,6,30-08-2021 02:35,5,3,Positive
Multipurpose,14856.1,,Great deal,92 Elmside Center,40.169014,-105.210376,REGULAR,bc4c3a1c-b5da-4ac8-ae42-115b566ae83b,16-10-2021 03:09,COMPLETED,,OX9001,"Boise X-9 Multipurpose Paper, 20 lbs., 92 Brightness, 500 Sheets/Ream, 10 Reams/Carton",78.19,,,190,506,BIWEEK,60906229fc13ae0a6b0000e4,Skiles-Mante,Teddy Bear,teddy@skiles-mante.com,Kevin Malone,68,Lake Elbertstad,MT,80503,West,10,14-11-2021 14:11,5,2,Positive
Cardstock,664.2,,Great deal,884 Crest Line Road,38.801059,-76.645107,EXPRESS,d51c3407-4f80-41e9-9f24-6f395e9d2e29,06-07-2021 15:18,COMPLETED,,91335,"Neenah Paper Creative Collection Basic 8.5"" x 11"" Cardstock Paper, 65 lbs., 50 Sheets/Pack",3.69,,100,180,112,MONTH,60906229fc13ae0a6b000170,"Ondricka, Ullrich and Hackett",Marcie Kangaroo,marcie@ondricka.com,Stanley Hudson,0,Darronville,ME,20711,Northeast,1,19-07-2021 22:01,5,1,Positive
Multipurpose,46001.8,,Great deal,95 Old Shore Place,47.772963,-93.912179,REGULAR,fca41d6d-2054-4f80-8127-ca28a85fec76,10-07-2021 22:35,COMPLETED,,2700-LQO,"EarthChoice Multipurpose Paper, 20 lbs., 92 Brightness, 40 Cases/Pallet",2300.09,,,20,1156,ANNUAL,60906229fc13ae0a6b00013b,"Wolff, Halvorson and Towne",Elise Monkey,elise@wolff.com,Andy Bernard,101,Gleasonburgh,AZ,56694,West,9,23-07-2021 08:54,5,6,Positive
Printer,664.5,,"Heard of Dunder Mifflin through the grapevine, and they did not disappoint!",09383 Burning Wood Center,35.428391,-97.640843,EXPRESS,024d2f28-10d4-4ee9-bc87-1798e6d83dd7,15-08-2021 13:15,COMPLETED,,191259,"JAM Paper Strathmore 24lb Paper, 8.5 x 11, Ivory Wove, 100 Sheets/Pack",13.29,,100,50,976,ANNUAL,60906229fc13ae0a6b0002c6,Nitzsche Group,Spork Pig,spork@nitzsche.com,Dwight Schrute,50,New Claudieville,MS,73317,South,5,28-08-2021 16:36,4,9,Positive
Multipurpose,378630,,"Heard of Dunder Mifflin through the grapevine, and they did not disappoint!",89 High Crossing Park,36.834289,-119.83335,REGULAR,130d75e8-72c0-45c0-8eb7-901d6bdf784f,15-07-2021 19:39,COMPLETED,,TR56962-LQO,"TRU RED,¢ Multipurpose Paper, 20 lbs., 96 Bright, 500 /Ream, 10 Reams/Carton, 40 Cartons/Pallet",1803,,,210,704,BIWEEK,60906229fc13ae0a6b00028d,Buckridge Ltd,Simon Monkey,simon@buckridge.com,Stanley Hudson,101,South Billside,HI,93713,West,7,31-07-2021 11:15,4,10,Positive
Multipurpose,4359.6,,"Heard of Dunder Mifflin through the grapevine, and they did not disappoint!",7807 Loftsgordon Center,39.675999,-106.308296,EXPRESS,33a09daa-1297-4451-b72e-5ff967218ee1,07-05-2021 16:56,COMPLETED,,NMP1124,"Navigator Premium Multipurpose Paper, 24 lbs., 99 Brightness, 500/Ream, 10 Reams/Carton",108.99,,100,40,479,ANNUAL,60906229fc13ae0a6b0001d9,Welch Ltd,Hippeux Hippo,hippeux@welch.com,Dwight Schrute,120,Funkchester,OH,81809,Midwest,1,22-05-2021 23:25,4,4,Positive
Cardstock,30940.2,,"Heard of Dunder Mifflin through the grapevine, and they did not disappoint!",5 Hoffman Street,38.584047,-121.375846,EXPRESS,3d6ca0e8-dccf-446b-923d-bb45055ea129,01-02-2021 08:21,COMPLETED,,3R11458,"Xerox Bold 8.5"" x 11"" Cardstock Paper, 80 lbs, 94 Brightness, 250/Ream, 8 Reams/Carton",171.89,29.22,100,180,3190,ANNUAL,60906229fc13ae0a6b000284,"O'Conner, Kreiger and Krajcik",Flurry Hamster,flurry@oconner.com,Kevin Malone,119,Wintheisershire,NV,95865,West,5,17-02-2021 23:14,4,14,Positive
Cardstock,18907.9,,"Heard of Dunder Mifflin through the grapevine, and they did not disappoint!",019 Badeau Circle,27.984396,-82.015259,REGULAR,3e18795e-a30a-4c3f-9f39-ebfce81f2e70,25-03-2021 19:40,COMPLETED,,3R11458,"Xerox Bold 8.5"" x 11"" Cardstock Paper, 80 lbs, 94 Brightness, 250/Ream, 8 Reams/Carton",171.89,1.72,,110,4117,ANNUAL,60906229fc13ae0a6b00030c,Thompson Inc,Raymond Cat,raymond@thompson.com,Andy Bernard,75,East Reystad,CA,33811,West,9,19-04-2021 01:54,4,6,Positive
Cardstock,369,,"Heard of Dunder Mifflin through the grapevine, and they did not disappoint!",38 Jackson Terrace,41.305641,-86.014116,EXPRESS,401d6436-ae0a-48df-bed5-9262d1b445b1,13-05-2021 17:58,COMPLETED,,91335,"Neenah Paper Creative Collection Basic 8.5"" x 11"" Cardstock Paper, 65 lbs., 50 Sheets/Pack",3.69,,100,100,951,WEEK,60906229fc13ae0a6b0003a1,Skiles-Larson,Tammy Cub,tammy@skiles-larson.com,Stanley Hudson,38,South Antoniettaside,CT,46524,Northeast,1,08-06-2021 20:22,4,9,Positive
Kraft Roll,7198.8,,"Heard of Dunder Mifflin through the grapevine, and they did not disappoint!",5825 Starling Plaza,35.907875,-78.77296,REGULAR,40796a70-b502-4c3b-a301-190f54042907,31-01-2021 04:52,COMPLETED,,310-36-40,"Delta Paper Butcher Paper Roll, White, 40 lbs., 36"" x 1000', 1 Roll",59.99,2.4,,120,770,WEEK,60906229fc13ae0a6b00022f,Jaskolski Ltd,Hippeux Hippo,hippeux@jaskolski.com,Erin Hannon,143,Manteshire,WV,27696,South,6,03-03-2021 00:33,4,7,Positive
Multipurpose,21798,,"Heard of Dunder Mifflin through the grapevine, and they did not disappoint!",2506 Cardinal Lane,39.753814,-89.579701,EXPRESS,4775721a-c4f8-46b2-8438-831066daf7a3,13-11-2021 00:17,COMPLETED,,NMP1124,"Navigator Premium Multipurpose Paper, 24 lbs., 99 Brightness, 500/Ream, 10 Reams/Carton",108.99,,100,200,573,BIWEEK,60906229fc13ae0a6b0002ef,Zieme Ltd,Flurry Hamster,flurry@zieme.com,Meredith Palmer,7,Colbyburgh,MS,62719,South,4,26-11-2021 07:29,4,2,Positive
Cardstock,147.6,,"Heard of Dunder Mifflin through the grapevine, and they did not disappoint!",785 Shelley Center,40.332296,-99.180146,EXPRESS,a2e0b978-491a-4b48-a271-f32cc9beb715,18-01-2021 17:16,COMPLETED,,91335,"Neenah Paper Creative Collection Basic 8.5"" x 11"" Cardstock Paper, 65 lbs., 50 Sheets/Pack",3.69,,100,40,382,WEEK,60906229fc13ae0a6b000044,Boehm Group,Hamlet Hamster,hamlet@boehm.com,Creed Patton,62,Maeveshire,NY,68997,Northeast,1,13-02-2021 14:23,4,8,Positive
Cardstock,479.7,,"Heard of Dunder Mifflin through the grapevine, and they did not disappoint!",0 Macpherson Court,42.329852,-111.965452,EXPRESS,a93cc91e-4f73-4587-827f-9907fe2b3024,28-09-2021 18:54,COMPLETED,,91335,"Neenah Paper Creative Collection Basic 8.5"" x 11"" Cardstock Paper, 65 lbs., 50 Sheets/Pack",3.69,,100,130,828,WEEK,60906229fc13ae0a6b0002d2,Predovic LLC,Ketchup Duck,ketchup@predovic.com,Dwight Schrute,4,Schoenside,MS,83281,South,3,29-10-2021 12:25,4,15,Positive
Copy,230240,,"Heard of Dunder Mifflin through the grapevine, and they did not disappoint!",82 Center Trail,40.029709,-79.54884,EXPRESS,cebd6e58-3a7d-4495-bdcb-35fa1e3a4973,24-02-2021 23:46,COMPLETED,,324791-LQO,"Copy Paper, 20 lbs., 92 Brightness, 500 Sheets/Ream, 40 Cases/Pallet",1439,,100,160,361,BIWEEK,60906229fc13ae0a6b000093,Schaden-Barrows,Sparro Bird,sparro@schaden-barrows.com,Angela Martin,8,Weissnatmouth,NV,15425,West,6,14-03-2021 15:08,4,8,Positive
Multipurpose,13198,,"Heard of Dunder Mifflin through the grapevine, and they did not disappoint!",155 Russell Center,41.035529,-74.449126,EXPRESS,cf9482df-8255-481d-9422-65054c0aa6bd,25-11-2021 01:21,COMPLETED,,3R02047,"Xerox Vitality Multipurpose Paper, 8.5"" x 11"", 20 lbs., White, 500 Sheets/Ream, 10 Reams/Carton",65.99,9.9,100,200,191,MONTH,60906229fc13ae0a6b00024f,Von and Sons,Portia Dog,portia@von.com,Pam Beesly,116,Swaniawskimouth,SC,7435,South,3,21-12-2021 05:40,4,1,Positive
Kraft Roll,7476,,"Heard of Dunder Mifflin through the grapevine, and they did not disappoint!",928 Old Shore Park,29.202324,-97.076306,EXPRESS,d36459d0-ad63-45cb-8563-2483d5fc41e2,25-02-2021 08:15,COMPLETED,,C2130240ST,"Delta Paper Kraft Paper Roll, Brown, 30 lbs., 24"" x 1200', 1 Roll",35.6,3.2,100,210,231,MONTH,60906229fc13ae0a6b000122,Cruickshank-Leuschke,Gloria Duck,gloria@cruickshank-leuschke.com,Ryan Howard,113,East Madyson,AZ,78000,West,7,26-03-2021 19:32,4,2,Positive
Multipurpose,3959.4,,"Heard of Dunder Mifflin through the grapevine, and they did not disappoint!",67 Manitowish Place,44.054734,-95.175721,REGULAR,e9933f83-8341-467b-9054-8fb889372186,09-11-2021 19:20,COMPLETED,,3R02047,"Xerox Vitality Multipurpose Paper, 8.5"" x 11"", 20 lbs., White, 500 Sheets/Ream, 10 Reams/Carton",65.99,15.18,,60,749,ANNUAL,60906229fc13ae0a6b0000f5,Hansen-Farrell,Elmer Horse,elmer@hansen-farrell.com,Pam Beesly,11,West Valentinstad,FL,56145,South,5,06-12-2021 01:49,4,15,Positive
Kraft Roll,356,,I don't like that I have to mix and match from the limited options they have to get what I want. There's very little flexibility in customizations.,86 John Wall Avenue,41.191052,-73.967562,REGULAR,0b5cc40b-7c1c-43d2-bbdd-2bf28028dda1,08-04-2021 04:46,COMPLETED,,C2130240ST,"Delta Paper Kraft Paper Roll, Brown, 30 lbs., 24"" x 1200', 1 Roll",35.6,8.54,,10,652,ANNUAL,60906229fc13ae0a6b0002d7,Oberbrunner Inc,Curly Pig,curly@oberbrunner.com,Meredith Palmer,6,Arneview,WY,10927,West,10,26-04-2021 15:48,4,2,Neutral
Multipurpose,11988.9,,I don't like that I have to mix and match from the limited options they have to get what I want. There's very little flexibility in customizations.,06840 Farmco Point,41.678438,-77.043261,REGULAR,22012906-e933-48f5-82a6-917f6847bf11,18-11-2021 10:59,COMPLETED,,NMP1124,"Navigator Premium Multipurpose Paper, 24 lbs., 99 Brightness, 500/Ream, 10 Reams/Carton",108.99,,,110,15,MONTH,60906229fc13ae0a6b0001d3,"Nienow, Pouros and Walsh",Chops Pig,chops@nienow.com,Angela Martin,45,Chelsieville,NV,16913,West,7,07-12-2021 20:49,4,6,Neutral
Printer,395.7,,I don't like that I have to mix and match from the limited options they have to get what I want. There's very little flexibility in customizations.,4 Sloan Road,41.733701,-86.24147,EXPRESS,22abd4d9-00f9-48af-b685-9323bfb15046,25-02-2021 00:57,COMPLETED,,20270,"Astrobrights Color Paper, 24 lb./89 gsm, Neon 5-Color Assortment, 500 Sheets/Pack",13.19,,100,30,366,ANNUAL,60906229fc13ae0a6b0002a8,"Crooks, Feest and Casper",Nana Monkey,nana@crooks.com,Oscar Martinez,53,Hermistonstad,PA,46700,Northeast,1,17-03-2021 13:12,4,9,Neutral
Multipurpose,306510,,I don't like that I have to mix and match from the limited options they have to get what I want. There's very little flexibility in customizations.,4 Cascade Junction,41.100918,-73.520517,EXPRESS,3523da3c-4aab-42ec-8da1-7dea8430e752,20-02-2021 21:31,COMPLETED,,TR56962-LQO,"TRU RED,¢ Multipurpose Paper, 20 lbs., 96 Bright, 500 /Ream, 10 Reams/Carton, 40 Cartons/Pallet",1803,,100,170,84,MONTH,60906229fc13ae0a6b0000c6,Wilkinson-Kunde,Drago Alligator,drago@wilkinson-kunde.com,Dwight Schrute,39,Rafaelaberg,RI,6945,Northeast,1,21-03-2021 16:57,4,10,Neutral
Multipurpose,13198,,I don't like that I have to mix and match from the limited options they have to get what I want. There's very little flexibility in customizations.,1 Brown Center,42.29949,-71.232519,REGULAR,390d7a70-a5a2-43a4-8bae-606dfba30eb9,10-06-2021 11:58,COMPLETED,,3R02047,"Xerox Vitality Multipurpose Paper, 8.5"" x 11"", 20 lbs., White, 500 Sheets/Ream, 10 Reams/Carton",65.99,7.26,,200,700,BIWEEK,60906229fc13ae0a6b0001f2,Blick-Stiedemann,Pancetti Pig,pancetti@blick-stiedemann.com,Angela Martin,70,South Garrettfort,MT,2517,West,10,22-06-2021 04:31,4,7,Neutral
Multipurpose,13078.8,,I don't like that I have to mix and match from the limited options they have to get what I want. There's very little flexibility in customizations.,95815 Rusk Plaza,42.141638,-106.630301,EXPRESS,57f01be0-a66b-4683-b045-19e101c3a464,28-11-2021 04:51,COMPLETED,,NMP1124,"Navigator Premium Multipurpose Paper, 24 lbs., 99 Brightness, 500/Ream, 10 Reams/Carton",108.99,,100,120,245,BIWEEK,60906229fc13ae0a6b0000dd,Denesik LLC,Olaf Anteater,olaf@denesik.com,Kevin Malone,39,Gusikowskistad,IN,82327,Midwest,2,28-12-2021 11:05,4,9,Neutral
Multipurpose,10558.4,,I don't like that I have to mix and match from the limited options they have to get what I want. There's very little flexibility in customizations.,4 Loeprich Drive,40.376134,-86.773975,EXPRESS,9b87cc80-8992-41bf-886e-f7208d2561dd,06-06-2021 07:52,COMPLETED,,3R02047,"Xerox Vitality Multipurpose Paper, 8.5"" x 11"", 20 lbs., White, 500 Sheets/Ream, 10 Reams/Carton",65.99,15.18,100,160,576,BIWEEK,60906229fc13ae0a6b000260,"Wintheiser, Schamberger and Treutel",Sandy Ostrich,sandy@wintheiser.com,Oscar Martinez,25,Greggburgh,NY,47941,Northeast,1,24-06-2021 01:23,4,12,Neutral
Printer,265.8,,I don't like that I have to mix and match from the limited options they have to get what I want. There's very little flexibility in customizations.,49253 Hoard Place,44.176279,-93.230762,EXPRESS,9bdf44d8-fa34-4c75-a34e-5ebd1a6dd320,20-04-2021 00:44,COMPLETED,,191259,"JAM Paper Strathmore 24lb Paper, 8.5 x 11, Ivory Wove, 100 Sheets/Pack",13.29,,100,20,244,ANNUAL,60906229fc13ae0a6b00032a,"Trantow, Torp and Ziemann",Bam Deer,bam@trantow.com,Dwight Schrute,61,McLaughlinhaven,OH,55049,Midwest,1,19-05-2021 16:49,4,8,Neutral
Cardstock,738,,I don't like that I have to mix and match from the limited options they have to get what I want. There's very little flexibility in customizations.,79 Utah Center,42.968299,-123.0635,REGULAR,a2461503-baf8-4bb5-ba1d-4ffdfc33b614,21-03-2021 18:39,COMPLETED,,91335,"Neenah Paper Creative Collection Basic 8.5"" x 11"" Cardstock Paper, 65 lbs., 50 Sheets/Pack",3.69,,,200,147,MONTH,60906229fc13ae0a6b000193,"Connelly, Hickle and Goldner",Cyd Elephant,cyd@connelly.com,Andy Bernard,98,Alvinaland,MT,97429,West,10,03-04-2021 16:00,4,8,Neutral
Kraft Roll,10798.2,,I don't like that I have to mix and match from the limited options they have to get what I want. There's very little flexibility in customizations.,078 Helena Circle,36.677726,-95.224726,REGULAR,a4dc17ec-20e6-42d6-b8fa-d5c1bf30f700,20-09-2021 17:33,COMPLETED,,310-36-40,"Delta Paper Butcher Paper Roll, White, 40 lbs., 36"" x 1000', 1 Roll",59.99,3,,180,247,MONTH,60906229fc13ae0a6b0000be,Mayert PLC,Gayle Alligator,gayle@mayert.com,Dwight Schrute,16,Aufderharchester,SC,74323,South,6,13-10-2021 21:38,4,10,Neutral
Copy,43170,,I don't like that I have to mix and match from the limited options they have to get what I want. There's very little flexibility in customizations.,0 Brickson Park Road,37.320924,-78.420892,EXPRESS,acf93e5b-7756-4b2a-9098-1808d6732531,18-11-2021 12:26,COMPLETED,,324791-LQO,"Copy Paper, 20 lbs., 92 Brightness, 500 Sheets/Ream, 40 Cases/Pallet",1439,,100,30,304,ANNUAL,60906229fc13ae0a6b00013f,Nolan-Leffler,Jeremiah Frog,jeremiah@nolan-leffler.com,Ryan Howard,32,Lake Rex,MT,23908,West,5,07-12-2021 15:05,4,4,Neutral
Kraft Roll,3560,,I don't like that I have to mix and match from the limited options they have to get what I want. There's very little flexibility in customizations.,54193 Carberry Circle,43.333988,-71.446658,REGULAR,af150318-f21b-42ed-90ea-11f8bad5eae7,28-11-2021 14:06,COMPLETED,,C2130240ST,"Delta Paper Kraft Paper Roll, Brown, 30 lbs., 24"" x 1200', 1 Roll",35.6,4.63,,100,627,WEEK,60906229fc13ae0a6b0001f1,Crona Ltd,Hornsby Rhino,hornsby@crona.com,Angela Martin,34,Rodriguezfort,FL,3308,South,5,27-12-2021 17:42,4,9,Neutral
Copy,129510,,I don't like that I have to mix and match from the limited options they have to get what I want. There's very little flexibility in customizations.,1194 Norway Maple Avenue,37.122207,-77.820822,EXPRESS,ddee7596-347b-4db8-9884-280fae730c7b,14-03-2021 04:06,COMPLETED,,324791-LQO,"Copy Paper, 20 lbs., 92 Brightness, 500 Sheets/Ream, 40 Cases/Pallet",1439,,100,90,764,WEEK,60906229fc13ae0a6b00036d,"Waelchi, Shanahan and Pacocha",Deena Duck,deena@waelchi.com,Meredith Palmer,79,South Lonzo,WV,23895,South,3,04-04-2021 18:44,4,3,Neutral
Multipurpose,234390,,I don't like that I have to mix and match from the limited options they have to get what I want. There's very little flexibility in customizations.,184 Carey Street,39.34156,-74.480862,REGULAR,e9c6aeff-4f5d-4728-a877-7db8297fdd1c,04-07-2021 08:49,COMPLETED,,TR56962-LQO,"TRU RED,¢ Multipurpose Paper, 20 lbs., 96 Bright, 500 /Ream, 10 Reams/Carton, 40 Cartons/Pallet",1803,,,130,269,BIWEEK,60906229fc13ae0a6b000005,Blick-Bahringer,Tank Rhino,tank@blick-bahringer.com,Phyllis Vance,114,Uptonton,WA,8486,West,9,02-08-2021 12:11,4,4,Neutral
Kraft Roll,712,,I don't like that I have to mix and match from the limited options they have to get what I want. There's very little flexibility in customizations.,22 Crownhardt Park,41.285469,-75.896388,REGULAR,f0bd1756-b987-47f1-8d0e-78a01b4bc59c,25-05-2021 20:44,COMPLETED,,C2130240ST,"Delta Paper Kraft Paper Roll, Brown, 30 lbs., 24"" x 1200', 1 Roll",35.6,2.85,,20,496,ANNUAL,60906229fc13ae0a6b000179,Cummerata and Sons,Samson Mouse,samson@cummerata.com,Dwight Schrute,131,Lake Glennie,IN,18739,Midwest,5,11-06-2021 06:35,4,2,Neutral
Multipurpose,5939.1,,I don't like that I have to mix and match from the limited options they have to get what I want. There's very little flexibility in customizations.,5 Spenser Street,47.89847,-118.003679,REGULAR,f4b717be-d518-435f-b6e5-e100a7d74bec,08-06-2021 15:14,COMPLETED,,3R02047,"Xerox Vitality Multipurpose Paper, 8.5"" x 11"", 20 lbs., White, 500 Sheets/Ream, 10 Reams/Carton",65.99,1.32,,90,465,WEEK,60906229fc13ae0a6b000010,Glover and Sons,Ellie Elephant,ellie@glover.com,Angela Martin,26,Framiborough,MT,99056,West,9,19-06-2021 15:58,4,4,Neutral
Cardstock,184.5,,I don't like that I have to mix and match from the limited options they have to get what I want. There's very little flexibility in customizations.,910 Northview Lane,31.595106,-100.799358,EXPRESS,fe7bf2c1-1266-4275-9809-85574ce117fb,04-01-2021 16:55,COMPLETED,,91335,"Neenah Paper Creative Collection Basic 8.5"" x 11"" Cardstock Paper, 65 lbs., 50 Sheets/Pack",3.69,,100,50,340,WEEK,60906229fc13ae0a6b000159,Streich-Johnston,Camofrog Frog,camofrog@streich-johnston.com,Stanley Hudson,135,Rohanhaven,CO,76974,West,7,25-01-2021 05:09,4,2,Neutral
Multipurpose,13078.8,,I mean... they're a paper company. What's there to get excited about?,9 Arapahoe Plaza,36.905389,-119.748632,EXPRESS,08eeceb7-e26d-43f0-9132-17941e66c52f,07-08-2021 07:40,COMPLETED,,NMP1124,"Navigator Premium Multipurpose Paper, 24 lbs., 99 Brightness, 500/Ream, 10 Reams/Carton",108.99,,100,120,210,MONTH,60906229fc13ae0a6b0002a5,Larkin-Stoltenberg,Avery Eagle,avery@larkin-stoltenberg.com,Dwight Schrute,122,Wunschfort,CT,93811,Northeast,1,22-08-2021 10:33,3,11,Neutral
Multipurpose,7037.1,,I mean... they're a paper company. What's there to get excited about?,7614 Milwaukee Way,42.293103,-71.298537,REGULAR,1a08aed2-99c6-4122-a48e-799f9d9473ac,07-07-2021 20:33,COMPLETED,,OX9001,"Boise X-9 Multipurpose Paper, 20 lbs., 92 Brightness, 500 Sheets/Ream, 10 Reams/Carton",78.19,,,90,474,WEEK,60906229fc13ae0a6b000347,"Klocko, Armstrong and Parker",Ellie Elephant,ellie@klocko.com,Meredith Palmer,150,Port Douglasland,WV,2490,South,5,02-08-2021 07:50,3,4,Neutral
Cardstock,258.3,,I mean... they're a paper company. What's there to get excited about?,4821 Gulseth Way,38.042413,-84.544016,EXPRESS,1e7d31ba-aa55-4845-a48e-ee5edaf15407,20-12-2021 08:52,COMPLETED,,91335,"Neenah Paper Creative Collection Basic 8.5"" x 11"" Cardstock Paper, 65 lbs., 50 Sheets/Pack",3.69,,100,70,596,WEEK,60906229fc13ae0a6b000169,Kovacek-Price,Tucker Elephant,tucker@kovacek-price.com,Dwight Schrute,139,Mayerport,RI,40504,Northeast,0,10-01-2022 17:45,3,6,Neutral
Kraft Roll,6598.9,,I mean... they're a paper company. What's there to get excited about?,432 Monument Alley,48.406092,-114.532766,REGULAR,30c2f5c9-b381-41df-a81e-70157837e854,22-08-2021 02:12,COMPLETED,,310-36-40,"Delta Paper Butcher Paper Roll, White, 40 lbs., 36"" x 1000', 1 Roll",59.99,12,,110,113,MONTH,60906229fc13ae0a6b000319,"Grady, Keebler and Kilback",Ed Horse,ed@grady.com,Ryan Howard,59,Lake Janice,NJ,59978,Northeast,1,07-09-2021 04:36,3,9,Neutral
Multipurpose,13292.3,,I mean... they're a paper company. What's there to get excited about?,224 Arizona Circle,36.71208,-87.613526,EXPRESS,35a4134c-d23b-4f01-a155-7c231c568f9b,02-09-2021 03:23,COMPLETED,,OX9001,"Boise X-9 Multipurpose Paper, 20 lbs., 92 Brightness, 500 Sheets/Ream, 10 Reams/Carton",78.19,,100,170,934,WEEK,60906229fc13ae0a6b00028f,Rempel PLC,Teddy Bear,teddy@rempel.com,Angela Martin,1,Lake Marcellafort,NV,42236,West,7,15-09-2021 14:25,3,1,Neutral
Cardstock,12032.3,,I mean... they're a paper company. What's there to get excited about?,34 Artisan Plaza,29.999103,-97.828207,REGULAR,58b45539-09ce-497a-98d7-0e7a87b5ce27,11-01-2021 16:27,COMPLETED,,3R11458,"Xerox Bold 8.5"" x 11"" Cardstock Paper, 80 lbs, 94 Brightness, 250/Ream, 8 Reams/Carton",171.89,20.63,,70,3351,ANNUAL,60906229fc13ae0a6b000353,"Toy, Rau and Kutch",Limberg Mouse,limberg@toy.com,Andy Bernard,122,West Edmond,SC,78640,South,5,25-01-2021 22:27,3,11,Neutral
Printer,1594.8,,I mean... they're a paper company. What's there to get excited about?,1 Crowley Terrace,42.66816,-72.055644,EXPRESS,5ea458d0-e7a7-457b-968e-7608025bbf92,01-02-2021 08:57,COMPLETED,,191259,"JAM Paper Strathmore 24lb Paper, 8.5 x 11, Ivory Wove, 100 Sheets/Pack",13.29,,100,120,306,BIWEEK,60906229fc13ae0a6b00007e,"Lueilwitz, Reilly and Graham",Hazel Squirrel,hazel@lueilwitz.com,Dwight Schrute,100,New Jany,SC,1485,South,4,26-02-2021 13:17,3,1,Neutral
Cardstock,442.8,,I mean... they're a paper company. What's there to get excited about?,96 Badeau Circle,41.102896,-80.761275,REGULAR,7852d5ca-997b-4f67-b636-2e45d93d4b95,31-10-2021 12:48,COMPLETED,,91335,"Neenah Paper Creative Collection Basic 8.5"" x 11"" Cardstock Paper, 65 lbs., 50 Sheets/Pack",3.69,,,120,494,BIWEEK,60906229fc13ae0a6b0000cf,White-Cruickshank,Lopez Deer,lopez@white-cruickshank.com,Erin Hannon,37,East Christop,NY,44583,Northeast,3,22-11-2021 20:29,3,11,Neutral
Copy,143900,,I mean... they're a paper company. What's there to get excited about?,68017 Westend Drive,44.251183,-83.814184,EXPRESS,7e1ca412-b8d0-41b5-a9dd-b2b54cf236f7,23-07-2021 12:50,COMPLETED,,324791-LQO,"Copy Paper, 20 lbs., 92 Brightness, 500 Sheets/Ream, 40 Cases/Pallet",1439,,100,100,902,WEEK,60906229fc13ae0a6b00032c,"Hoppe, Ledner and Koelpin",Tybalt Tiger,tybalt@hoppe.com,Kevin Malone,10,Jerdebury,CO,48773,West,7,04-08-2021 02:59,3,7,Neutral
Kraft Roll,5399.1,,I mean... they're a paper company. What's there to get excited about?,4026 Vahlen Avenue,43.146603,-88.340998,REGULAR,80a87416-a879-453f-95f2-4bdb4edfb156,04-04-2021 08:12,COMPLETED,,310-36-40,"Delta Paper Butcher Paper Roll, White, 40 lbs., 36"" x 1000', 1 Roll",59.99,3,,90,523,WEEK,60906229fc13ae0a6b00008a,Sporer PLC,Portia Dog,portia@sporer.com,Kevin Malone,133,Greenland,AL,53030,South,5,15-04-2021 15:38,3,9,Neutral
Kraft Roll,8398.6,,I mean... they're a paper company. What's there to get excited about?,9509 Weeping Birch Junction,44.808422,-73.082507,EXPRESS,8b58ef1a-d4e3-4509-9a0e-a0adbe42d606,15-07-2021 11:13,COMPLETED,,310-36-40,"Delta Paper Butcher Paper Roll, White, 40 lbs., 36"" x 1000', 1 Roll",59.99,12,100,140,205,MONTH,60906229fc13ae0a6b000117,Hessel-Rau,Bertha Hippo,bertha@hessel-rau.com,Ryan Howard,49,Lake Tituston,MT,5480,West,7,03-08-2021 23:42,3,15,Neutral
Multipurpose,6255.2,,I mean... they're a paper company. What's there to get excited about?,7 Oriole Drive,47.45747,-116.930561,EXPRESS,8c47c9f4-dfaf-406a-afeb-5318553dd2c2,20-09-2021 06:53,COMPLETED,,OX9001,"Boise X-9 Multipurpose Paper, 20 lbs., 92 Brightness, 500 Sheets/Ream, 10 Reams/Carton",78.19,,100,80,725,WEEK,60906229fc13ae0a6b0003e2,"Marvin, Daniel and Harvey",Vladimir Cub,vladimir@marvin.com,Creed Patton,32,North Keyshawnmouth,OH,83986,Midwest,3,20-10-2021 13:36,3,6,Neutral
Cardstock,1718.9,,I mean... they're a paper company. What's there to get excited about?,07 Grover Park,41.45182,-81.036703,EXPRESS,8fc688a3-9982-4725-8634-b0e79a4495df,27-08-2021 16:22,COMPLETED,,3R11458,"Xerox Bold 8.5"" x 11"" Cardstock Paper, 80 lbs, 94 Brightness, 250/Ream, 8 Reams/Carton",171.89,30.94,100,10,2705,ANNUAL,60906229fc13ae0a6b0003ca,"Anderson, Kihn and Rolfson",Rooney Kangaroo,rooney@anderson.com,Pam Beesly,54,Lake Ruthie,DE,44062,South,5,12-09-2021 14:55,3,3,Neutral
Cardstock,30940.2,,I mean... they're a paper company. What's there to get excited about?,98499 Susan Avenue,36.905389,-119.748632,REGULAR,9afa7217-e76a-400d-bce6-da63b5a178a6,31-07-2021 06:57,COMPLETED,,3R11458,"Xerox Bold 8.5"" x 11"" Cardstock Paper, 80 lbs, 94 Brightness, 250/Ream, 8 Reams/Carton",171.89,27.5,,180,3833,ANNUAL,60906229fc13ae0a6b00019b,"Ruecker, Harris and Kulas",Chevre Goat,chevre@ruecker.com,Dwight Schrute,87,Ariellefurt,NY,93774,Northeast,2,10-08-2021 09:49,3,14,Neutral
Multipurpose,8719.2,,I mean... they're a paper company. What's there to get excited about?,536 Larry Terrace,41.522059,-75.217172,EXPRESS,ae302f85-3f96-4331-9cae-d008d9513c97,11-07-2021 17:53,COMPLETED,,NMP1124,"Navigator Premium Multipurpose Paper, 24 lbs., 99 Brightness, 500/Ream, 10 Reams/Carton",108.99,,100,80,620,WEEK,60906229fc13ae0a6b00002a,Wiza-Bogisich,Elvis Lion,elvis@wiza-bogisich.com,Meredith Palmer,62,West Ewell,MT,18486,West,6,02-08-2021 09:00,3,12,Neutral
Printer,395.7,,I mean... they're a paper company. What's there to get excited about?,7 Dakota Plaza,32.378728,-86.145011,EXPRESS,c17dd378-c1cf-47ce-8dd4-109f3b450544,25-05-2021 03:58,COMPLETED,,20270,"Astrobrights Color Paper, 24 lb./89 gsm, Neon 5-Color Assortment, 500 Sheets/Pack",13.19,,100,30,408,ANNUAL,60906229fc13ae0a6b0003af,Parker LLC,Hornsby Rhino,hornsby@parker.com,Stanley Hudson,129,Lylaside,CT,36143,Northeast,0,13-06-2021 16:56,3,2,Neutral
Printer,2126.4,,I mean... they're a paper company. What's there to get excited about?,35883 Burning Wood Street,40.855694,-124.066898,EXPRESS,cf70afa5-1d4b-4a4a-b7a9-2f95a62d5df5,20-02-2021 21:07,COMPLETED,,191259,"JAM Paper Strathmore 24lb Paper, 8.5 x 11, Ivory Wove, 100 Sheets/Pack",13.29,,100,160,699,BIWEEK,60906229fc13ae0a6b000103,"Gleichner, Leffler and Feeney",Sylvana Squirrel,sylvana@gleichner.com,Dwight Schrute,10,New Wade,KY,95522,South,5,10-03-2021 20:24,3,11,Neutral
Multipurpose,7819,,I mean... they're a paper company. What's there to get excited about?,95424 Gina Plaza,32.951539,-93.06287,EXPRESS,db9705e3-edea-43f2-9846-650f63c9f2ce,17-10-2021 04:00,COMPLETED,,OX9001,"Boise X-9 Multipurpose Paper, 20 lbs., 92 Brightness, 500 Sheets/Ream, 10 Reams/Carton",78.19,,100,100,891,WEEK,60906229fc13ae0a6b00010f,"Erdman, Simonis and Herzog",Monty Monkey,monty@erdman.com,Erin Hannon,80,Buddyhaven,AZ,71038,West,5,10-11-2021 21:17,3,14,Neutral
Multipurpose,216360,,I mean... they're a paper company. What's there to get excited about?,6160 Porter Avenue,43.638483,-75.286787,EXPRESS,e370a5d4-16d4-40d5-a223-503490e7e452,11-04-2021 01:42,COMPLETED,,TR56962-LQO,"TRU RED,¢ Multipurpose Paper, 20 lbs., 96 Bright, 500 /Ream, 10 Reams/Carton, 40 Cartons/Pallet",1803,,100,120,579,BIWEEK,60906229fc13ae0a6b00016f,Lesch-Stracke,Walker Dog,walker@lesch-stracke.com,Meredith Palmer,48,Volkmanport,SD,13375,Midwest,3,30-04-2021 08:11,3,4,Neutral
Cardstock,30940.2,,I mean... they're a paper company. What's there to get excited about?,1 Mosinee Alley,43.230771,-93.915585,EXPRESS,e7e1495f-224d-4e12-b4ba-8810649a422a,04-08-2021 14:46,COMPLETED,,3R11458,"Xerox Bold 8.5"" x 11"" Cardstock Paper, 80 lbs, 94 Brightness, 250/Ream, 8 Reams/Carton",171.89,34.38,100,180,2972,ANNUAL,60906229fc13ae0a6b000278,Ziemann-Vandervort,Filbert Squirrel,filbert@ziemann-vandervort.com,Andy Bernard,5,New Rosalind,AL,50490,South,4,18-08-2021 08:03,3,9,Neutral
Multipurpose,13857.9,,I mean... they're a paper company. What's there to get excited about?,0979 Bonner Parkway,34.203289,-97.11552,EXPRESS,fe61e584-9d5d-4bb8-9ea7-cae4101ee068,22-01-2021 07:25,COMPLETED,,3R02047,"Xerox Vitality Multipurpose Paper, 8.5"" x 11"", 20 lbs., White, 500 Sheets/Ream, 10 Reams/Carton",65.99,13.2,100,210,794,BIWEEK,60906229fc13ae0a6b0001a3,"Swaniawski, Kutch and Ziemann",Curlos Sheep,curlos@swaniawski.com,Phyllis Vance,128,Vandervortstad,NY,73406,Northeast,1,15-02-2021 15:06,3,5,Neutral
Cardstock,5156.7,,"I said I wanted to order just 1 purchase to try things out and the account manager ""accidentally"" charged us for 100. After hours of being put on hold, we finally got the surcharge removed.",51 Elka Drive,39.457212,-86.43328,EXPRESS,8a43d4ca-2ff7-438c-ad58-4da73a05b556,01-08-2021 16:31,COMPLETED,,3R11458,"Xerox Bold 8.5"" x 11"" Cardstock Paper, 80 lbs, 94 Brightness, 250/Ream, 8 Reams/Carton",171.89,13.75,100,30,1733,ANNUAL,60906229fc13ae0a6b0001f9,Towne and Sons,Lobo Wolf,lobo@towne.com,Dwight Schrute,132,Willowmouth,IN,46153,Midwest,1,20-08-2021 08:36,1,13,Negative
Cardstock,73.8,,I Would Like To Never Speak To Dwight Schrute Ever Again,91 Golden Leaf Parkway,42.388652,-84.469336,REGULAR,02dc5912-8a37-46f6-82bb-74e9b07d6f10,06-06-2021 08:31,COMPLETED,,91335,"Neenah Paper Creative Collection Basic 8.5"" x 11"" Cardstock Paper, 65 lbs., 50 Sheets/Pack",3.69,,,20,784,ANNUAL,60906229fc13ae0a6b000189,Mills-Abernathy,Kody Cub,kody@mills-abernathy.com,Dwight Schrute,18,Pollichshire,OH,49278,Midwest,4,02-07-2021 10:55,1,4,Negative
